DIRECCION,DISTRITO,PROVINCIA,DEPARTAMENTO,colaboradores,lat,lon
AV. ARGENTINA 4793 CARMEN DE LA LEGUA REYNOSO,CARMEN DE LA LEGUA,CALLAO,LIMA,110,-12.0471763,-77.0929853
LA FONTANA 770 LA MOLINA,LA MOLINA,LIMA,LIMA,94,-12.0727286,-76.944856
"Q3RC+34W O, VILLA EL SALVADOR 15816",VILLA EL SALVADOR,LIMA,LIMA,58,-12.2135031,-76.9370262
AV. NESTOR GAMBETA 3235 CALLAO,CALLAO,CALLAO,CALLAO,58,-12.0292013,-77.1164721
AV. AREQUIPA 3570,SAN ISIDRO,LIMA,LIMA,37,-12.1008253,-77.0321931
CALLE 8 COMERCIAL CON LA AV. INDUSTRIAL CUADRA 4,LURIN,LIMA,LIMA,34,-12.2733688,-76.8688896
AV. HUASCAR 143 CALLAO,CALLAO,CALLAO,LIMA,30,-11.8856422,-77.1310644
"AV. JUAN DE ARONA N° 830 (S1-S4, P1-P19)",SAN ISIDRO,LIMA,LIMA,28,-12.0989209,-77.0346439
"AV PARRA 400, AREQUIPA",AREQUIPA,AREQUIPA,AREQUIPA,28,-16.4163084,-71.5486082
JIIRON SANTA ROSA 221 CERCADO D ELIMA,CERCADO DE LIMA,LIMA,LIMA,23,-12.0499601,-77.0291376
DIRECCION EXACTA: MZ C2 LOTE 5 URBANIZACION PARQUE INDUSTRIAL HUACHIPA ESTE (COMPLEJO BRYSON HILLS),SAN ANTONIO DE CHACLLA,HUAROCHIRI,LIMA,20,-11.7434398,-76.6498909
"PROLONGACION GONZALES PRADA 200 -202, EX FUNDO LARREA, MOCHE",MOCHE,TRUJILLO,LA LIBERTAD,18,-8.1714148,-79.008936
"59, SAN JUAN DE LURIGANCHO 15416",SAN JUAN DE LURIGANCHO,LIMA,LIMA,18,-12.0017252,-77.0084106
CA. ARCHIPIELAGO MZ B LOTE 30A URB CAPITANA LURIGANCHO CHOSICA,HUACHIPA,LIMA,LIMA,17,-12.0169226,-76.9483623
AV. REPUBLICA DE PANAMA N° 4575 – PISO 3,SURQUILLO,LIMA,LIMA,16,-12.1142159,-77.010462
S/N - PRADERAS DE LURIN,LURIN,LIMA,LIMA,15,-12.2623484,-76.830974
LA FONTANA 770 LA MOLINA,JESUS MARIA,LIMA,LIMA,15,-12.0727286,-76.944856
AV ARGENTINA 3088,CERCADO DE LIMA,LIMA,LIMA,13,-12.0475624,-77.0891484
LA FONTANA 770 LA MOLINA,PACHACAMAC,LIMA,LIMA,12,-12.0727286,-76.944856
"INTERSECCION ENTRE AV. EL POLO, LA ENCALADA Y AV. EL DERBY",SURCO,LIMA,LIMA,11,-11.8678175,-76.4576592
"AV. INDUSTRIAL MZ. E LT. 1,2,3,6",LURIN,LIMA,LIMA,11,-12.2733688,-76.8688896
"JR, JIRON GASPAR HERNANDEZ 700, LIMA",CERCADO DE LIMA,LIMA,LIMA,11,-12.0499601,-77.0291376
LIMA,LIMA,LIMA,LIMA,10,-12.0459808,-77.0305912
"AV. ERNESTO MONTAGNE 360, URB. LA AURORA, MIRAFLORES",MIRAFLORES,LIMA,LIMA,10,-12.1270697,-77.012957
CALLE VICTOR LIRA 151 - PARQUE INDUSTRIAL,AREQUIPA,AREQUIPA,AREQUIPA,9,-16.3988667,-71.5369607
"AV. ROMERO DREYFUS MZA. 18 LOTE. 3 URB. MACROPOLIS, LURIN",LURIN,LIMA,LIMA,9,-12.2733688,-76.8688896
SEC. CHURUPUYO B -4 URB. ASOC PROVIVIENDA NUEVO HUASO A Y B,CUSCO,CUSCO,CUSCO,9,-13.5170887,-71.9785356
"ALAMEDA DON AUGUSTO MZ. D1 LOTE 15, URB. LOS HUERTOS DE VILLA, CHORRILLOS",CHORRILLOS,LIMA,LIMA,8,-12.1709478,-77.02126
"AV. SANCHEZ CERRO SUB LOTE 234 - 239 A Y B ZONA INDUSTRIAL, CENTRO COMERCIAL REAL PLAZA, PIURA.",PIURA,PIURA,PIURA,8,-5.1971376,-80.6267237
"AV. EL DERBY 250, LIMA 15026",SURCO,LIMA,LIMA,8,-12.0978205,-76.9723904
AV. D - PAITA 20701,PAITA,PAITA,PIURA,8,-5.1036794,-81.106407
"AV. MOLINA CDRA 3/URUBAMBA, ATE.",ATE,LIMA,LIMA,8,-12.0387281,-76.896873
"AV. TOMAS VALLE (ESQUINA CON AV. PANAMERICANA NORTE) SECTOR E, SECCION C, VALLE BOCANEGRA, FUNDO CHAVARRI.",SAN MARTIN DE PORRES,LIMA,LIMA,8,-11.9814786,-77.0963114
"AV. SALAVERRY LT. C. – CDRA. 24, REAL PLAZA SALAVERRY, JESUS MARIA.",JESUS MARIA,LIMA,LIMA,7,-12.0751522,-77.043904
"AV. EL DERBY 250, LIMA 15023",SURCO,LIMA,LIMA,7,-12.0978205,-76.9723904
AV. JOSE LARCO 611,MIRAFLORES,LIMA,LIMA,7,-12.1304516,-77.0299044
"CALLE VERSALLES DEL CARMEN LOTE 04, CUZCO.",CUZCO,CUZCO,CUZCO,7,-13.5169542,-71.9792712
"AV. PRIMAVERA N°970 /984, SANTIAGO DE SURCO.",SURCO,LIMA,LIMA,7,-11.8678175,-76.4576592
"AV. NICOLAS AYLLON S/N LOTE 100 FNDO. LA ESTRELLA, ATE.",ATE,LIMA,LIMA,7,-12.0387281,-76.896873
"AV. PANAMERICANA MZ A LOTE 1-2 ZONA MUNICIPAL, SULLANA.",SULLANA,SULLANA,PIURA,6,-4.8900643,-80.6873604
"AV GASEODUCTO S/N ZONA INDUSTRIAL DE LURIN, LURIN 15823",LURIN,LIMA,LIMA,6,-12.2733688,-76.8688896
CALLE CHINCHON N° 944 (P2-P8),SAN ISIDRO,LIMA,LIMA,6,-12.0989209,-77.0346439
"CA. TOULON 133, LA MOLINA 15024",LA MOLINA,LIMA,LIMA,6,-12.077983,-76.9172838
AV. LA MOLINA N°3755 URB. SOL DE LA MOLINA,LA MOLINA,LIMA,LIMA,6,-18.0425204,-70.25162
"AV. GUARDIA CIVIL 927, URB. LA CAMPINA, CHORRILLOS.",CHORRILLOS,LIMA,LIMA,6,-12.1709478,-77.02126
"EDIFICIO ALIDE, SAN ISIDRO, AV. PASEO DE LA REPUBLICA 3211, SAN ISIDRO 15027",SAN ISIDRO,LIMA,LIMA,6,-12.0989209,-77.0346439
CALLE SAN JUAN DE DIOS 123,AREQUIPA,AREQUIPA,AREQUIPA,6,-16.3993569,-71.5354428
"AV. DE LA CULTURA C.C.REAL PLAZA, CUZCO.",CUZCO,CUZCO,CUZCO,6,-13.5169542,-71.9792712
"AV. ALFREDO MENDIOLA 7026, SAN MARTIN DE PORRES, C.C REAL PLAZA PRO",SAN MARTIN DE PORRES,LIMA,LIMA,6,-11.9814786,-77.0963114
"WX37+G5G &, AV. VICTOR ANDRES BELAUNDE, SAN ISIDRO 15073",SAN ISIDRO,LIMA,LIMA,5,-12.0989209,-77.0346439
"AV. VENEZUELA 5415, SAN MIGUEL.",SAN MIGUEL,LIMA,LIMA,5,-12.0629708,-77.0952786
AV PETHIT THOUARS 315 - CERCADO,CENTRO DE LIMA,LIMA,LIMA,5,-12.0506314,-77.0391309
"AV. PROLONGACION UNION N° 2218 ESQ. CON AV. PESQUEDA, TRUJILLO.",TRUJILLO,TRUJILLO,LA LIBERTAD,5,-8.1116778,-79.0287742
AV. PROCERES 155 SURCO,SANTIAGO DE SURCO,LIMA,LIMA,5,-12.147872,-76.986214
AV. PERU N° 3411,SAN MARTIN DE PORRES,LIMA,LIMA,5,-16.3102777,-71.6201605
"AV. ALFREDO BENAVIDES, 801, PISO 11, OFICINA 1102",MIRAFLORES,LIMA,LIMA,5,-12.1206214,-77.0294993
AV.GRAU 105,ICA,ICA,ICA,5,-12.0595274,-77.0352159
"JR. TUMBES 391- CC. REAL PLAZA, JULIACA.",JULIACA,JULIACA,JULIACA,5,-15.49611,-70.131117
"AV. NICOLAS AYLLON N°816 - 818 - K.M. DE LA CARRETERA CENTRAL, ATE.",ATE,LIMA,LIMA,5,-12.0387281,-76.896873
JR. PIZARRO N° 460 – TRUJILLO - LA LIBERTAD,TRUJILLO,TRUJILLO,LA LIBERTAD,5,-8.1116778,-79.0287742
AV. LOS HEROES 499 (ESQUINA DE AV. SAN JUAN Y AV. LOS HEROES - REFERENCIA ALFRENTE DE MERCADO CIUDAD DE DIOS SJM).,SAN JUAN DE MIRAFLORES,LIMA,LIMA,5,-12.1628581,-76.9635192
AV. BALTA 630,CHICLAYO,CHICLAYO,LAMBAYEQUE,5,-12.1424814,-77.0169251
"CRUCE DE LA AVENIDA TENIENTE VASQUEZ CON LA, LA MARINA, TUMBES",TUMBES,TUMBES,TUMBES,5,-3.5707875,-80.4596454
"CARRETERA PANAMERICA SUR KM. 239 SAN ANDRES, PISCO",PARACAS,PISCO,ICA,5,-13.8350425,-76.2496219
"AV. JAVIER PRADO OESTE N°980, MAGDALENA DEL MAR",MAGDALENA DEL MAR,LIMA,LIMA,5,-12.0957149,-77.0682243
JR. JOSE GALVEZ 321,BARRANCA,BARRANCA,LIMA PROVINCIAS,5,-7.3642593,-78.7997721
"AV. CENTENARIO MZ 365 LOTE 16 DISTRITO YARINACOCHA PROVINCIA CORONEL PORTILLO, UCAYALI.",PUCALLPA,PUCALLPA,UCAYALI,5,-8.375218,-74.5452959
AV. 28 DE JULIO 402,HUACHO,HUAURA,LIMA PROVINCIAS,5,-12.0645396,-77.0413058
"AV REPUBLICA DE PANAMA 4679, SURQUILLO 15049",SURQUILLO,LIMA,LIMA,5,-12.1160732,-77.018355
AV. CHANCAY HUARAL N°1248 LT B. INT (AV CHANCAY) DISTRITO Y PROVINCIA DE HUARAL,HUARAL,HUARAL,LIMA PROVINCIAS,5,-11.4954906,-77.207044
AV. ESPANA N° 2611 - TRUJILLO,TRUJILLO,TRUJILLO,LA LIBERTAD,5,-8.1077642,-79.0220767
"JIRON MARTINEZ DE COMPAGNON NRO. 1138 - 1146, ESQ. GIRASOLES Y RAMON CASTILLA",TARAPOTO,SAN MARTIN,SAN MARTIN,5,-6.4877198,-76.3598708
AV. GRAU 133,PIURA,PIURA,PIURA,5,-12.0595099,-77.0350465
"AV. FERMIN TANGUIS # 291 CRUCE CON LAS AMERICAS URB. EL PEDREGAL, PISCO.",PISCO,PISCO,ICA,5,-13.7099813,-76.2029793
KM 802 PANAMERICANA NORTE LAMBAYEQUE COMO REFERENCIA (CARRETERA A MORROPE),CHICLAYO,CHICLAYO,LAMBAYEQUE,5,-6.7716146,-79.8387175
"CARRETERA ANTIGUA PANAMERICANA SUR ESQUINA C/SAN PEDRO S/N UC 10577 (PARCELA B-43 UC 10577), LURIN.",LURIN,LIMA,LIMA,4,-12.2733688,-76.8688896
CALLE DERECHA 501,HUARAL,HUARAL,LIMA PROVINCIAS,4,-11.4945556,-77.2048235
AV. NICOLAS AYLLON 2625 ATE LIMA,EL AGUSTINO,LIMA,LIMA,4,-12.0640473,-76.9890998
JUAN LECAROS 172,PUENTE PIEDRA,LIMA,LIMA,4,-11.8667978,-77.0778382
"AV.IGNACIO MERINO S/N LOTE 02 URB. APROVISER (PARCELA C.C TALARA), TALARA.",TALARA,TALARA,PIURA,4,-4.5796872,-81.2718335
"AV. PIRAMIDE DEL SOL N°810 Y 820, SAN JUAN DE LURIGANCHO.",SAN JUAN DE LURIGANCHO,LIMA,LIMA,4,-12.0017252,-77.0084106
"AV. VIA EVITAMIENTO NORTE LOTE N° 1 CC. REAL PLAZA, CAJAMARCA",CAJAMARCA,CAJAMARCA,CAJAMARCA,4,-7.1566682,-78.517306
"PANAMERICANA NORTE S/N LOTE 1 MZ 9 URB PASEO DEL MAR, NUEVO CHIMBOTE.",NUEVO CHIMBOTE,SANTA,ANCASH,4,-9.1183822,-78.4587932
AV. AVIACION KM 1 CC AREQUIPA CENTER,CERRO COLORADO,AREQUIPA,AREQUIPA,4,-16.2979991,-71.573948
"KM 1010.5, CTRA. PANAMERICANA N, PIURA 20000",PIURA,PIURA,PIURA,4,-5.1971376,-80.6267237
"AV. JUAN LECAROS, PUENTE PIEDRA.",PUENTE PIEDRA,LIMA,LIMA,4,-11.8667978,-77.0778382
JR. GAMARRA 562,TRUJILLO,TRUJILLO,LA LIBERTAD,4,-12.0063632,-77.0726295
"JR. INDEPENDENCIA 1601 LAS MORAS, HUANUCO.",HUANUCO,HUANUCO,HUANUCO,4,-9.9293255,-76.2394845
"AV. FERROCARRIL N° 1035 (C.C. REAL PLAZA), HUANCAYO.",HUANCAYO,HUANCAYO,JUNIN,4,-12.068098,-75.2100953
ESQUINA MARISCAL CASTILLA Y BENAVIDES 185-195,CHINCHA ALTA,CHINCHA,ICA,4,-13.417488,-76.1325726
"AV. EL DERBY 250, LIMA 15024",SURCO,LIMA,LIMA,4,-12.0978205,-76.9723904
AV. SANTIAGO DE SURCO Nº 4717. SURCO,SURCO,LIMA,LIMA,4,-12.135186,-76.9967744
PORTAL UNION N. 28,AYACUCHO,HUAMANGA,AYACUCHO,4,-13.159859,-74.2256451
"PROLONGACION ANCASH CON MALECON RIBERENO S/N – MARISCAL NIETO, MOQUEGUA.",MARISCAL NIETO,MOQUEGUA,MOQUEGUA,4,-16.954594,-70.7307347
CALLE SIMON BOLIVAR 1292 - JAEN,JAEN,JAEN,CAJAMARCA,4,-5.7600678,-78.7869791
"MANUEL GONZALES PRADA 1521, COMAS 15314",COMAS,LIMA,LIMA,4,-11.9183928,-77.0339224
AV PEDRO MIOTTA 950 - SJM,SAN JUAN DE MIRAFLORES,LIMA,LIMA,4,-12.1710857,-76.977188
JR. EL COMERCIO 675,CAJAMARCA,CAJAMARCA,CAJAMARCA,4,-7.1566682,-78.517306
AV. CANTO GRANDE 3592-3594-3596-3598,SAN JUAN DE LURIGANCHO,LIMA,LIMA,4,-12.0017252,-77.0084106
AV. PERU C-13 URB. LANIFICIO,BUSTAMANTE Y RIVERO,AREQUIPA,AREQUIPA,4,-16.4267062,-71.5329181
"AV. NICOLAS AYLLON, (MALL AVENTURA PLAZA).",SANTA ANITA,LIMA,LIMA,4,-12.0494148,-76.9645757
AV. ARGENTINA CUADRA 32,CALLAO,CALLAO,LIMA,4,-11.9496688,-77.1288139
"AV. MESONES MURO S/N LOTE. B-C SEC. ZANJA HONDA, (CARRETERA JAEN CHICLAYO), JAEN.",JAEN,JAEN,CAJAMARCA,4,-5.7086087,-78.8075898
"AV. LOS MAESTROS ESQUINA AV. CUTERVO, ICA.",ICA,ICA,ICA,4,-14.0640967,-75.7290915
"AV. LOS INCAS LOTE 1, AREQUIPA.",AREQUIPA,AREQUIPA,AREQUIPA,4,-16.4212433,-71.5409025
CALLE HUANUCO N° 651-653,HUANUCO,HUANUCO,HUANUCO,4,-9.9293255,-76.2394845
"AV. METROPOLITANA UBIC. RURAL CATASTRO NRO. 20674, LA MERCED, DISTRITO DE CERRO COLORADO, AREQUIPA.",CERRO COLORADO,AREQUIPA,AREQUIPA,4,-16.2979991,-71.573948
"AV. PANAMERICANA 639, CHICLAYO - LAMBAYEQUE.",CHICLAYO,CHICLAYO,LAMBAYEQUE,4,-6.7804804,-79.8342935
"AV. ANDRES AVELINO CACERES CC. REAL PLAZA, CHICLAYO.",CHICLAYO,CHICLAYO,LAMBAYEQUE,4,-6.7716146,-79.8387175
"JR. SALAVERRY CD 6 /JR. FRANCISCO PIZARRO, TARAPOTO.",TARAPOTO,SAN MARTIN,SAN MARTIN,4,-6.4877198,-76.3598708
"REFINERIA LA PAMPILLA, CARR. VENTANILLA KM 25. HUAROCHIRI",VENTANILLA,CALLAO,LIMA,3,-11.8373115,-77.1262405
AV.MARISCAL TORIBIO DE LUZURIAGA 691,HUARAZ,HUARAZ,ANCASH,3,-9.5346297,-77.5298784
AV. VICTOR LARCO N° 505-509 - URB LA MERCED,TRUJILLO,TRUJILLO,LA LIBERTAD,3,-8.1116778,-79.0287742
NEMESIO RAEZ 957,EL TAMBO,HUANCAYO,JUNIN,3,-12.0780003,-75.2095788
"PARQUE INDUSTRIL, LURIN PUERTA 2",LURIN,LIMA,LIMA,3,-12.2733688,-76.8688896
CALLE PROGRESO ESQUINA CON CALLE HUALLAGA 300 - 302,YURIMAGUAS,ALTO AMAZONAS,LORETO,3,-5.8951672,-76.1046533
"AV. LA MOLINA, CDRA. 27, ESQUINA CON CALLE LA CASCADA, URB. RINCONADA ALTA, LA MOLINA.",LA MOLINA,LIMA,LIMA,3,-12.077983,-76.9172838
AV. LURIGANCHO 999 - ZARATE.,SJL,LIMA,LIMA,3,-12.0169504,-76.9991906
"CALLE MAYO 1 FTE PUEBLO JOVEN, VILLA MARIA DEL TRIUNFO.",VILLA MARIA DEL TRIUNFO,LIMA,LIMA,3,-12.1766438,-76.9189677
"AV. CAJAMARQUILLA, SAN JUAN DE LURIGANCHO 15461",SAN JUAN DE LURIGANCHO,LIMA,LIMA,3,-12.0230181,-76.9887638
JR. LIMA 401,TARMA,TARMA,JUNIN,3,-11.9768894,-77.0098005
JR. MIGUEL GRAU N° 278,BAMBAMARCA,HUALGAYOC,CAJAMARCA,3,-7.3669333,-78.8032988
AV. MEXICO 906,LA VICTORIA,LIMA,LIMA,3,-12.0768183,-77.0292233
"AV. PACHACUTEC N°403, VILLA EL SALVADOR.",VILLA EL SALVADOR,LIMA,LIMA,3,-12.2188484,-76.920992
JR. RAYMONDI 404,CALLERIA,CORONEL PORTILLO,UCAYALI,3,-7.8964619,-74.1845474
AV. NESTOR GAMBETA KM 14.6 - CALLAO,VENTANILLA,CALLAO,CALLAO,3,-11.8846444,-77.1230803
"AV. MIGUEL GRAU, MZ 03 LOTE 7A (PUEBLO JOVEN EL MILAGRO MZ 3 SUB LOTE 7A),",HUANCHACO,TRUJILLO,LA LIBERTAD,3,-8.0794934,-79.1202668
AV. NESTOR GAMBETTA 280 – Z.I. LA CHALACA - PROV. CONST. DEL CALLAO - PROV. CONST. DEL CALLAO – CALLAO – CERCA OVALO CENTENARIO,CALLAO,CALLAO,LIMA,3,-11.9496688,-77.1288139
CAL. 9 MZA. IK LOTE 5. URB. FUNDO INDUSTRIAL OQUENDO - PROV. CONST. DEL CALLAO - PROV. CONST. DEL CALLAO – CALLAO,CALLAO,CALLAO,LIMA,3,-11.9496688,-77.1288139
CAL. AMADOR MERINO REYNA NRO. 492,SAN ISIDRO,LIMA,LIMA,3,-12.0989209,-77.0346439
AV. MARISCAL CASTILLA N° 1100 - 1102 / CALLE MADRID NRO. 103 CON COMANDANTE CANGA NRO. 428 – 428A – 430,MARIANO MELGAR,AREQUIPA,AREQUIPA,3,-16.3659477,-71.453062
AV. PERU 318,ANDAHUAYLAS,ANDAHUAYLAS,APURIMAC,3,-16.3102777,-71.6201605
AV. PROCERES DE LA INDEPENDECIA N° 2062 SAN JUAN DE LURIGANCHO,SAN JUAN DE LURIGANCHO,LIMA,LIMA,3,-12.0017252,-77.0084106
"AV. VENECIA 220, REFERENCIA A UN COSTADO DE LA SUB REGION",MOQUEGUA,MOQUEGUA,MOQUEGUA,3,-17.1938025,-70.9345636
AV. SAN MARTIN 574,TACNA,TACNA,TACNA,3,-18.0122305,-70.2491249
AV TOMAS VALLE 1075 - SAN MARTIN DE PORRES,SAN MARTIN DE PORRES,LIMA,LIMA,3,-12.0086924,-77.060756
AV WILSON 1098 - CERCADO,CERCADO DE LIMA,LIMA,LIMA,3,-12.0499601,-77.0291376
AV. SALAVERRY 2998,MAGDALENA DEL MAR,LIMA,LIMA,3,-12.0852142,-77.0487018
AV. SALAVERRY CDRA. 23 Y 24,JESUS MARIA,LIMA,LIMA,3,-12.0751522,-77.043904
JR. ZEPITA 402,ILO,ILO,MOQUEGUA,3,-17.6458772,-71.3452005
JR. TRIUNFO 422,CHACHAPOYAS,CHACHAPOYAS,AMAZONAS,3,-6.2293182,-77.8714631
AV. ARGENTINA 4040 - CALLAO,CALLAO,CALLAO,LIMA,3,-12.0475624,-77.0891484
AV. ANGAMOS ESTE 955,SURQUILLO,LIMA,LIMA,3,-12.1129717,-77.021772
AV. PETIT THOUARS 1728-1736-1740,LINCE,LIMA,LIMA,3,-12.0825223,-77.0310016
AV. VENEZUELA S/N. URB. AMPLIACION LA NEGRITA A-1,AREQUIPA,AREQUIPA,AREQUIPA,3,-16.3988667,-71.5369607
AV. CHACHAPOYAS 1978,BAGUA GRANDE,UTCUBAMBA,AMAZONAS,3,-5.7553392,-78.4436632
CALLE SAN PEDRO 201,CHEPEN,CHEPEN,LA LIBERTAD,3,-16.3972734,-71.5293439
"JR. EZEQUIEL MONTOYA NRO. 309 – 317 CRUCE CON JR. OSORES NRO. 173, MZ 100 LT 7B",CHOTA,CHOTA,CAJAMARCA,3,-6.5614846,-78.6509551
"KM 33.5 ANTIGUA PANAMERICANA SUR S/N ESQUINA AV. JUAN POBLET LIND S/N (ENTRADA A PACHACAMAC ""CRUCE"").",LURIN,LIMA,LIMA,3,-12.2733688,-76.8688896
AV REPUBLICA DE PANAMA 4575 - PISO 9,SURQUILLO,LIMA,LIMA,3,-12.1142159,-77.010462
AV RIVERA NAVARRETE 495,SAN ISIDRO,LIMA,LIMA,3,-12.0894767,-77.0271142
AV PEDRO RUIZ 949,PEDRO,CHICLAYO,LAMBAYEQUE,3,-6.7675792,-79.8460689
AV OSCAR R BENAVIDES,CALLLAO,CALLAO,LIMA,3,-11.8741121,-77.0132769
JR. LIMA 278,CHINCHA ALTA,CHINCHA,ICA,3,-11.967575,-77.0113689
"AV. LA FONTANA 750, LA MOLINA LOCATION, LA MOLINA 15024",LA MOLINA,LIMA,LIMA,3,-12.077983,-76.9172838
JR. JAUREGUI 255-257-265,CERCADO,JULIACA,PUNO,3,-15.4932314,-70.1356177
CALLE PROSPERO 200,IQUITOS,MAYNAS,LORETO,3,-5.8914279,-76.1290715
CALLE REAL 1013,HUANCAYO,HUANCAYO,JUNIN,3,-12.044121,-76.9273589
JR. DOS DE MAYO 679 - 685,CELENDIN,CELENDIN,CAJAMARCA,3,-13.9667855,-73.5894354
INTERSECCION AV. FERNANDO WIESSE Y AV. CANTO GRANDE MZ. I-1 LT. 2 Y 3. URB. MARISCAL CACERES,SAN JUAN DE LURIGANCHO,LIMA,LIMA,3,-12.0017252,-77.0084106
FERNANDO WIESE NRO. 502,CERCADO DE LIMA,LIMA,LIMA,3,-12.0499601,-77.0291376
ESQUINA JR. SAN MARTIN N° 661 - 665 Y JR. LEONCIO PRADO - HUAMACHUCO,HUAMACHUCO,SANCHEZ CARRION,LA LIBERTAD,3,-7.8154676,-78.0487063
"AV. INDUSTRIAL N°3234, LOTE Nº 21, INDEPENDENCIA.",INDEPENDENCIA,LIMA,LIMA,3,-11.9919461,-77.0503721
JR MAYNAS 130,TARAPOTO,SAN MARTIN,SAN MARTIN,3,-6.4877198,-76.3598708
JR AREQUIPA 218,ABANCAY,ABANCAY,APURIMAC,3,-7.3671974,-78.8062504
JIRON CAMANA 320,CERCADO DE LIMA,LIMA,LIMA,3,-12.0253638,-75.2324173
AV. FCO. BOLOGNESI 689,CHIMBOTE,SANTA,ANCASH,3,-9.0744966,-78.593609
AV. RAMON CASTILLA N° 840,LAMBAYEQUE,LAMBAYEQUE,LAMBAYEQUE,3,-11.9923224,-77.0509866
AV. EL NARANJAL 1415 -LOS OLIVOS,LOS OLIVOS,LIMA,LIMA,3,-11.9678602,-77.0996772
JR. ALONSO DE ALVARADO 903,MOYOBAMBA,MOYOBAMBA,SAN MARTIN,3,-6.0347302,-76.9746773
AV. TEODORO VALCARCEL 254,TRUJILLO,TRUJILLO,LA LIBERTAD,3,-8.1011559,-79.0357513
MOQUEGUA CALLE MOQUEGUA N° 831,MOQUEGUA,MARISCAL NIETO,MOQUEGUA,3,-17.1938025,-70.9345636
MICAELA BASTIDAS NRO 1201-1205-1213 Y JR MARIA PARADO DE BELLIDO 502-508-512 Y 514,EL PORVENIR,TRUJILLO,LA LIBERTAD,3,-8.0516808,-79.0016911
MARIANO NUNEZ 136 -138,JULIACA,SAN ROMAN,PUNO,3,-15.4937238,-70.131749
PASEO LOS LIBERTADORES 261,TUMBES,TUMBES,TUMBES,3,-12.0478923,-75.1882652
"PREDIO URBANO AV. CAJAMARCA MZ 14, LOTE 4, AAHH NUEVA CAJAMARCA (CON REGISTRO MUNICIPAL AV. CAJAMARCA SUR 551-559)",NUEVA CAJAMARCA,RIOJA,SAN MARTIN,3,-5.9407861,-77.3092386
AV CANAVAL Y MOREYRA 254,SAN ISIDRO,LIMA,LIMA,3,-12.0978883,-77.0193865
AV DEL EJERCITO C.C. CAYMA OF. 33,CAYMA,AREQUIPA,AREQUIPA,3,-16.2793942,-71.4603116
PROLONGACION PASEO DE LA REPUBLICA S/N. URB. MATELLINI,CHORRILLOS,LIMA,LIMA,3,-12.1709478,-77.02126
AV CUTERVO CUADRA 10,ICA,ICA,ICA,2,-14.0640967,-75.7290915
AV BRASIL 750,BRENA,LIMA,LIMA,2,-12.0668458,-77.0467314
PROLG. AV LA CULTURA LT.1-C,SAN JERONIMO,CUZCO,CUZCO,2,-13.5585733,-71.8883114
"PRIMERA ETAPA UNID. U1, NUCLEO URBANO BUENOS AIRES, MZ. F, LOTE 9-10",NUEVO CHIMBOTE,SANTA,ANCASH,2,-9.1183822,-78.4587932
AV. TARAPACA / LA CAPILLA S/N,RIMAC,LIMA,LIMA,2,-12.0266773,-77.0340939
AV. SIGLO XX N° 122-C,CERCADO,AREQUIPA,AREQUIPA,2,-16.3988667,-71.5369607
AV. SESQUICENTENARIO 255,CHICLAYO,CHICLAYO,LAMBAYEQUE,2,-6.776043,-79.8427722
AV. SANCHEZ CERRO S/N Y AV. COUNTRY,PIURA,PIURA,PIURA,2,-5.1971376,-80.6267237
"MZ. C10, SUB LOTE A, URB. EX ZONA COMERCIAL",VENTANILLA,CALLAO,LIMA,2,-11.8373115,-77.1262405
AV. TUPAC AMARU 3043 URB. EL PROGRESO,CARABAYLLO,LIMA,LIMA,2,-16.348325,-71.544797
AV. TOMAS VALLE Y PANAMERICANA NORTE S/N,SAN MARTIN DE PORRES,LIMA,LIMA,2,-11.9814786,-77.0963114
AV. RIVA AGUERO N° 1314,EL AGUSTINO,LIMA,LIMA,2,-6.0398591,-79.1272699
AV. RICARDO PALMA 336,MIRAFLORES,LIMA,LIMA,2,-12.1193133,-77.026404
AV. REVOLUCION GRUPO 15 ESQUINA DE AV. CESAR VALLEJO CON REVOLUCION (ESPALDA DE MUNICIPALIDAD VES).,VILLA EL SALVADOR,LIMA,LIMA,2,-12.2135031,-76.9370262
"AV. REPUBLICA DE PANAMA 4575, SURQUILLO, LIMA",SURQUILLO,LIMA,LIMA,2,-12.1093204,-77.0185096
"AV. REPUBLICA DE CHILE 504, JESUS MARIA 15072",JESUS MARIA,LIMA,LIMA,2,-12.0700657,-77.0386058
AV. RAUL FERRERO 1179,LA MOLINA,LIMA,LIMA,2,-12.0828711,-76.9368953
AV. RAMON ZAVALETA 120,WANCHAQ,CUZCO,CUZCO,2,-13.5216519,-71.9675501
AV. RAIMONDI 249,RUPA RUPA,LEONCIO PRADO,HUANUCO,2,-5.1805131,-80.6302386
JR. AYACUCHO N° 846 - 848,CERCADO DE LIMA,LIMA,LIMA,2,-12.0499601,-77.0291376
JR. AREQUIPA N° 291 N° 299,AYACUCHO,HUAMANGA,AYACUCHO,2,-13.1604269,-74.2256973
"JR. APURIMAC 645, MZ. A6 LT. 25 CHULUCANAS-MORROPON –PIURA",CHULUCANAS,PIURA,PIURA,2,-5.0965065,-80.1609229
JR. APURIMAC 625,CAJAMARCA,CAJAMARCA,CAJAMARCA,2,-11.9747027,-76.9955487
AV. EL DORADO 1035 - 1039,JOSE LEONARDO ORTIZ,CHICLAYO,LAMBAYEQUE,2,-6.7575905,-79.8542979
AV. EDUARDO DE HABICH 245,SAN MARTIN DE PORRES,LIMA,LIMA,2,-12.0252805,-77.0524493
JR. 28 DE JULIO N° 128,SICUANI,CANCHIS,CUZCO,2,-14.2729288,-71.2265322
JR. 22 DE OCTUBRE N° 1117 MZ 67 LOTE 20,CUTERVO,CUTERVO,CAJAMARCA,2,-6.3790362,-78.8157238
JR DIEGO DE ALMAGRO 564,TRUJILLO,TRUJILLO,LA LIBERTAD,2,-8.1116778,-79.0287742
"JR CARLOS ARRIETA 380 , BARRANCO / CALLE GENERAL SUAREZ 739",BARRANCO,LIMA,LIMA,2,-12.1496977,-77.0212908
JR AYACUCHO NRO. 20,PACASMAYO,PACASMAYO,LA LIBERTAD,2,-7.4028958,-79.5684847
AV. ENRIQUE MEIGSS NRO 2895 P.J. MIRAFLORES ALTO.,CHIMBOTE,CHIMBOTE,ANCASH,2,-9.1288252,-78.5340436
AV. ELMER FAUCETT N° 6000,CALLAO,CALLAO,LIMA,2,-12.0626291,-77.09704
AV. ELMER FAUCETT 567,SAN MIGUEL,LIMA,LIMA,2,-12.0451673,-77.0989106
"HFHM+F88, AV PIZARRO, JOSE LUIS BUSTAMANTE Y RIVERO 04002",JOSE LUIS BUSTAMANTE Y RIVERO,AREQUIPA,AREQUIPA,2,-16.4331715,-71.5233141
"AV. GRAN CHIMU 826, URB. ZARATE",SAN JUAN DE LURIGANCHO,LIMA,LIMA,2,-12.0264408,-77.0038221
AV. 28 DE JULIO 144 - CHOSICA,LURIGANCHO,LIMA,LIMA,2,-11.9352807,-76.693623
AV. 15 DE JULIO LT. 14 ZONA B - HUAYCAN,ATE,LIMA,LIMA,2,-12.0387281,-76.896873
"JR. E MZ. 225 LT. 1 ZONA INDUSTRIAL ANTIGUA, PIURA",PIURA,PIURA,PIURA,2,-5.1971376,-80.6267237
JR. DANIEL VILLAR 217,CARAZ,HUAYLAS,ANCASH,2,-9.048505,-77.8100573
JR. DANIEL A. CARRION 201,TAMBOPATA,TAMBOPATA,MADRE DE DIOS,2,-5.9211756,-77.3131565
JR. CUZCO N°494,LIMA,LIMA,LIMA,2,-12.0459808,-77.0305912
JR. COMERCIO NO. 532,BAGUA,BAGUA,AMAZONAS,2,-5.6390867,-78.5317246
JR. CARABAYA N° 406 CERCADO,LIMA,LIMA,LIMA,2,-12.0459808,-77.0305912
AV. DOS DE MAYO 1574,SAN ISIDRO,LIMA,LIMA,2,-7.8808426,-79.2316867
"AV. DE LA CULTURA LT. A-2, EX SEMINARIO SAN ANTONIO ABAD – CUZCO",CUZCO,CUZCO,CUZCO,2,-13.5169542,-71.9792712
AV. DANIEL ALCIDES CARRION N° 265-A ZONA LA PAMPILLA D.A. CARRION,LA PAMPILLA,AREQUIPA,AREQUIPA,2,-17.1498265,-71.7857953
AV. DANIEL A. CARRION 12 - SAN JUAN,YANACANCHA,PASCO,PASCO,2,-10.6702605,-76.2544781
"AV. CHIMPU OCLLO MZ. L-1 LOTE 32 Y 33, URB. LUCYANA, CARABAYLLO",CARABAYLLO,LIMA,LIMA,2,-11.9007232,-77.0330337
JR. BRUNO TERREROS N° 454,CHUPACA,CHUPACA,JUNIN,2,-12.0617452,-75.2876533
AV. GRAN CHIMU 568 CALLE NAYLAMP N° 288- 288A- 290- 296-298 LOTE 24 MZ. L2 URB. ZARATE,SAN JUAN DE LURIGANCHO,LIMA,LIMA,2,-12.0017252,-77.0084106
AV. GRAL. JUAN ANTONIO PEZET 1483,SAN ISIDRO,LIMA,LIMA,2,-12.0989209,-77.0346439
AV. GERARDO UNGER 3263-3273,INDEPENDENCIA,LIMA,LIMA,2,-11.9919461,-77.0503721
"AV. GARCILASO DE LA VEGA N° 1337, LOCAL COMERCIAL LS-14 – CENTRO COMERCIAL REAL PLAZA CENTRO CIVICO",LIMA,LIMA,LIMA,2,-12.0459808,-77.0305912
AV. FRANCISCO BOLOGNESI / AV. NICOLAS AYLLON S/N CENTRO BANCARIO SANTA ANITA,SANTA ANITA,LIMA,LIMA,2,-12.0494148,-76.9645757
AV. FERROCARRIL S/N - FRACCION 2,URUBAMBA,URUBAMBA,CUZCO,2,-13.305953,-72.1159706
ESQ.CALLE LIMA Y GRAU S/N,NAZCA,NAZCA,ICA,2,-14.8277203,-74.9370624
ESQ. HUALLAGA Y ANDAHUAYLAS,LIMA,LIMA,LIMA,2,-12.0459808,-77.0305912
ESQ. CALLE MONTERROSA / CALLE MONTEGRANDE REF. ALTURA EL CENTRO COMERCIAL CAMINOS DEL INCA,SANTIAGO DE SURCO,LIMA,LIMA,2,-12.1251049,-76.9821605
ESQ. AVENIDA TOMAS VALLE Y PANAMERICANA NORTE,INDEPENDENCIA,LIMA,LIMA,2,-11.9919461,-77.0503721
ESQ. AV. REAL Y PASEO LA BRENA 505,HUANCAYO,HUANCAYO,JUNIN,2,-12.068098,-75.2100953
ESQ. AV. CANADA / CONSTANTINO CARVALHO,LA VICTORIA,LIMA,LIMA,2,-12.0641355,-77.0295563
ESQ. AV CIRCUNVALACION 1885 CON LUIS F. ORBEGOSO - URB. EL PINO,SAN LUIS,LIMA,LIMA,2,-12.0736464,-76.9941006
AV. HUAYRUROPATA #1038-1040,WANCHAQ,CUZCO,CUZCO,2,-13.528242,-71.9566938
"AV. GUARDIA CIVIL N° 338, LOCAL 101, URB. LA CAMPINA",CHORRILLOS,LIMA,LIMA,2,-12.1709478,-77.02126
AV. CAMINOS DEL INCA 208 ESQUINA CON CALLE PUNTA PEJERREY FRENTE AL CENTRO COMERCIAL CAMINOS DEL INCA,SANTIAGO DE SURCO,LIMA,LIMA,2,-12.1251049,-76.9821605
JR. FRANCISCO BOLOGNESI MZ. 12 ZONA CASCO URBANO,CHIMBOTE,SANTA,ANCASH,2,-9.0744966,-78.593609
JR. ELIAS AGUIRRE 358,CHIMBOTE,SANTA,ANCASH,2,-9.0744966,-78.593609
LEOLCIO PRADO MZ 15 LOTE 1,ALTO DE LA ALIANZA,TACNA,TACNA,2,-17.8003418,-70.2711884
KM.36.5 ANTIGUA PANAMERICANA SUR (MERCADO VIRGEN DE LAS MERCEDES),LURIN,LIMA,LIMA,2,-12.2733688,-76.8688896
KILOMETRO 39 LURIN,LURIN,LIMA,LIMA,2,-12.2733688,-76.8688896
AV. ALFREDO BENAVIDES 1191,MIRAFLORES,LIMA,LIMA,2,-12.125732,-77.0204333
AV. ALEJANDRO IGLESIAS 614,CHORRILLOS,LIMA,LIMA,2,-12.1691004,-77.0266632
AV. ALEJANDRO BERTELLO CON AV. CANTA CALLAO,CALLAO,LIMA,LIMA,2,-11.9670323,-77.0086073
CENTRO COMERCIAL PLAZA CAMACHO AV. JAVIER PRADO ESTE CDRA 51.TDAS.24B-26B-27B,LA MOLINA,LIMA,LIMA,2,-12.077983,-76.9172838
CENTRO COMERCIAL JOCKEY PLAZA - AV JAVIER PRADO 4200 1ER NIVELL CENTRO BANCARIO,SANTIAGO DE SURCO,LIMA,LIMA,2,-12.1251049,-76.9821605
"CENTRO COMERCIAL GAMA LOCAL LBA 04 EN AV. AVIACION N°888, URB. LA POLVORA",LA VICTORIA,LIMA,LIMA,2,-12.0641355,-77.0295563
CENTRO COMERCIAL EL POLO -AV. ENCALADA 1515,SANTIAGO DE SURCO,LIMA,LIMA,2,-12.1251049,-76.9821605
"MANZANA J1, LOTE 23, URB. MARISCAL CACERES",SAN JUAN DE LURIGANCHO,LIMA,LIMA,2,-12.0017252,-77.0084106
"LTE. 1A-1B-1C - 1D, MZ. A AV. AMERICA OESTE, AV. MANSICHE, AV. TITIN Y AV. JESUS DE NASARETHTIENDA BF-1068, BF-1072, BF-1076, BF-1080 - MALL PLAZA",TRUJILLO,TRUJILLO,LA LIBERTAD,2,-8.1116778,-79.0287742
AV PEDRO MIOTTA 851,SJM,LIMA,LIMA,2,-12.1710857,-76.977188
AV NICOLAS AYLLON 838 - ATE,ATE,LIMA,LIMA,2,-12.0640473,-76.9890998
"LT 3 MZ. 34 SECTOR CHOSICA DEL NORTELA VICTORIA, CHICLAYO",LA VICTORIA,CHICLAYO,LAMBAYEQUE,2,-6.8192293,-79.8591182
"LOTES 1 Y 2 MZ M1 PARCELA II, PARQUE INDUSTRIAL DE VILLA EL SALVADOR (AL FRENTE DE PLAZA VEA PARQUE INDUSTRIAL).",VILLA EL SALVADOR,LIMA,LIMA,2,-12.2135031,-76.9370262
"LOTE N°3, MANZANA H-1, CON FRENTE A LA AVENIDA PROCERES DE LA INDEPENDENCIA, URBANIZACION SAN CARLOS",SAN JUAN DE LURIGANCHO,LIMA,LIMA,2,-12.0017252,-77.0084106
"CASA TIPO ""A"", LOTE 2, MZ H, URB MAGISTERIAL II ETAPA",CUZCO,CUZCO,CUZCO,2,-13.5169542,-71.9792712
AV. JOSE PARDO 102,MIRAFLORES,LIMA,LIMA,2,-12.1193495,-77.0294449
AV. JOSE LARCO 1085,MIRAFLORES,LIMA,LIMA,2,-12.1285133,-77.0295427
AV. JORGE BASADRE 301,SAN ISIDRO,LIMA,LIMA,2,-12.0955532,-77.0427003
"AV. JESUS N° 1401 (MZ. H LOTE 12 ZONA UNICA), PUEBLO JOVEN JOSE CARLOS MARIATEGUI",PAUCARPATA,AREQUIPA,AREQUIPA,2,-16.4210931,-71.474928
AV. JAVIER PRADO OESTE 603-607-611,MAGDALENA DEL MAR,LIMA,LIMA,2,-12.0957149,-77.0682243
AV. JAVIER PRADO ESTE N°444 PISO 3 Y 4,SAN ISIDRO,LIMA,LIMA,2,-12.0989209,-77.0346439
"AV. JAVIER PRADO ESTE 6210, OFICINA 701, LA MOLINA",LA MOLINA,LIMA,LIMA,2,-12.077983,-76.9172838
AV. JACINTO IBANEZ 513 - 515,AREQUIPA,AREQUIPA,AREQUIPA,2,-16.4185738,-71.5430246
"CALLE UNION N° 508, CERCADO",FERRENAFE,FERRENAFE,LAMBAYEQUE,2,-6.6392169,-79.7879824
CALLE TOMAS MOYA #498,RIMAC,LIMA,LIMA,2,-12.0266773,-77.0340939
AV. LA MOLINA 4451 III ETAPA URB. SOL DE LA MOLINA – LA MOLINA,LA MOLINA,LIMA,LIMA,2,-12.077983,-76.9172838
"AV. LA MARINA NO. 2000, LOCAL B-302, DENTRO DEL CC PLAZA SAN MIGUEL",SAN MIGUEL,LIMA,LIMA,2,-12.0727512,-77.095353
AV. LA MARINA 2831 MARANGA,SAN MIGUEL,LIMA,LIMA,2,-12.0756959,-77.0961127
AV. LA MARINA 2355,SAN MIGUEL,LIMA,LIMA,2,-12.0795829,-77.0886904
AV. LA CULTURA N 701,SANTA ANITA,LIMA,LIMA,2,-17.9981281,-70.2597203
AV. JULIO C. TELLO 999,LINCE,LIMA,LIMA,2,-12.0403434,-77.0887504
AV. JUAN VELASCO ALVARADO SECTOR 2 GRUPO 8 MZ. F LT. 17,VILLA EL SALVADOR,LIMA,LIMA,2,-12.2135031,-76.9370262
AV. JUAN VELASCO ALVARADO 885,VILLA EL SALVADOR,LIMA,LIMA,2,-11.783237,-77.1590328
AV. JOSE PARDO N° 175,MIRAFLORES,LIMA,LIMA,2,-12.1771407,-76.9470749
CALLE SAN MARTIN 685,SULLANA,SULLANA,PIURA,2,-12.0744576,-77.0621368
JR. JOSE VALENCIA 575 (EX - JOSE GALVEZ),MAGDALENA DEL MAR,LIMA,LIMA,2,-12.0957149,-77.0682243
JR. HUMBOLT 1609,LA VICTORIA,LIMA,LIMA,2,-12.0641355,-77.0295563
JR. HUALLAGA N°224,SANTA,SANTA,ANCASH,2,-8.9874476,-78.6136857
JR. FRANCISCO BOLOGNESI N° 700,CAJABAMBA,CAJABAMBA,CAJAMARCA,2,-4.5994197,-77.8639477
AV. CENTRO CIVICO 147,PARINAS,TALARA,PIURA,2,-11.0228771,-77.6438634
AV. CENTENARIO N° 101. BARRIO ALTO DE LA PALOMA.,HUANCABAMBA,HUANCABAMBA,PIURA,2,-5.2402325,-79.4488035
AV. CAYETANO HEREDIA 503-505 ESQ. GUARDIA CIVIL PIURA,CASTILLA,PIURA,PIURA,2,-5.115365,-80.5340462
AV. CARRETERA CENTRAL 111 NIVEL 1 INT. LF-3A,SANTA ANITA,LIMA,LIMA,2,-12.0494148,-76.9645757
AV. CARLOS ALBERTO IZAGUIRRE 271,INDEPENDENCIA,LIMA,LIMA,2,-11.9902994,-77.062126
AV. LOS HEROES N° 516,SAN JUAN DE MIRAFLORES,LIMA,LIMA,2,-12.0166852,-77.0623103
AV. LIMA N° 2500 - VILLA EL SALVADOR - CENTRO COMERCIAL MEGA EXPRESS VES,VILLA EL SALVADOR,LIMA,LIMA,2,-12.2135031,-76.9370262
AV. LIMA N° 1089 MZ. 42 LT. 02 PP.JJ. VILLA POETA JOSE GALVEZ PARCELA B,VILLA MARIA DEL TRIUNFO,LIMA,LIMA,2,-12.1766438,-76.9189677
AV. LIMA 367 - 377 -379,TARAPOTO,SAN MARTIN,SAN MARTIN,2,-13.2870185,-76.2546779
"AV. LA MOLINA N° 1168, 1166 Y 1164 - LA MOLINA",LA MOLINA,LIMA,LIMA,2,-12.077983,-76.9172838
CALLE PEREZ FIGUEROLA 162,PISCO,PISCO,ICA,2,-13.7106891,-76.2002671
CALLE MORAL N° 103 (FRENTE A LA OFICINA DE SERPOST),CERCADO,AREQUIPA,AREQUIPA,2,-16.3988667,-71.5369607
CALLE MOQUEGUA 861,MOQUEGUA,MARISCAL NIETO,MOQUEGUA,2,-11.9856393,-76.8164398
CALLE MERCADERES 301,SANTIAGO DE SURCO,LIMA,LIMA,2,-16.3992173,-71.5339964
CALLE LOPEZ DE ZUNIGA 445,CHANCAY,HUARAL,LIMA PROVINCIAS,2,-11.5649359,-77.2694432
AV. MANCO CAPAC 101,LA VICTORIA,LIMA,LIMA,2,-12.0417547,-77.0984572
"AV. LURIGANCHO CDRA. 9, SAN JUAN DE LURIGANCHO 15427",SAN JUAN DE LURIGANCHO,LIMA,LIMA,2,-12.0169504,-76.9991906
AV. LOS PROCERES 7664,LOS OLIVOS,LIMA,LIMA,2,-12.0108302,-77.087517
"AV. LOS LIRIOS N° 301, LOCAL CFS-0128",SAN JUAN DE MIRAFLORES,LIMA,LIMA,2,-12.1628581,-76.9635192
"AV. LOS INCAS S/N, AREQUIPA 04001",AREQUIPA,AREQUIPA,AREQUIPA,2,-16.4212433,-71.5409025
CALLE LIMA NRO 885,LA UNION,PIURA,PIURA,2,-5.4043679,-80.7439051
CALLE LAS TIENDAS 237,SURQUILLO,LIMA,LIMA,2,-12.1040288,-77.0209255
CALLE LAS DALIAS B-1 URB. MIRAFLORES,CASTILLA,PIURA,PIURA,2,-5.115365,-80.5340462
CALLE ISLAS VIRGENES LOTE 1 Y 2 MZ. J. ESQ. CON CALLE TAHITI. URB. PORTADA DE LA PLANICIE,LA MOLINA,LIMA,LIMA,2,-12.077983,-76.9172838
CALLE HORACIO URTEAGA Nº 1252-1256,JESUS MARIA,LIMA,LIMA,2,-12.0751522,-77.043904
"CALLE FRANCHINI Y HUARAZ S/N, CALLERIA - CORONEL PORTILLO - PUCALLPA",PUCALLPA,PUCALLPA,PUCALLPA,2,-8.3750879,-74.5453301
"AV. ARGENTINA N°2430, CALLAO.",CALLAO,CALLAO,LIMA,2,-12.0465742,-77.0768567
JR. OCONA 102,LIMA,LIMA,LIMA,2,-12.0459808,-77.0305912
"JR. MANCO CAPAC 342, DISTRITO DE PAMPAS, HUANCAVELICA",PAMPAS,TAYACAJA,HUANCAVELICA,2,-12.3987428,-74.8684404
AV. CAMINO REAL 1203-1207,SAN ISIDRO,LIMA,LIMA,2,-12.0400492,-76.9737653
AV. BRASIL NRO. 3260,MAGDALENA DEL MAR,LIMA,LIMA,2,-12.522027,-73.8357214
AV. BOLOGNESI 316,MAGDALENA DEL MAR,LIMA,LIMA,2,-12.0712956,-77.1634239
AV. BOLIVAR N° 265. (PLAZA DE ARMAS CHOCOPE ),CHOCOPE,ASCOPE,LA LIBERTAD,2,-7.7918461,-79.2226569
AV. BOLIVAR 384 - URB. MOSHOQUEQUE,JOSE LEONARDO ORTIZ,CHICLAYO,LAMBAYEQUE,2,-6.7420777,-79.8342124
AV. BENAVIDES 5298,SANTIAGO DE SURCO,LIMA,LIMA,2,-12.1300103,-76.9821645
AV. BENAVIDES 3090,SANTIAGO DE SURCO,LIMA,LIMA,2,-12.7265658,-76.4590499
JR. LIMA 510,PUNO,PUNO,PUNO,2,-11.967575,-77.0113689
AV. MARISCAL RAMON CASTILLA 695,MIRAFLORES,LIMA,LIMA,2,-12.0410076,-77.1210078
AV. MARISCAL CACERES C2 LOTE 19 URB. EX ZONA COMERCIAL E INDUSTRIAL DE VENTANILLA,VENTANILLA,LIMA,LIMA,2,-11.8373115,-77.1262405
AV. MARISCAL CACERES 673,AYACUCHO,HUAMANGA,AYACUCHO,2,-12.0502602,-75.2523123
"AV. MARGINAL Nº605 J – LOTE N° 14, MZ D-1, ZONA BAJA DEL II SECTOR, AAHH BAJO PICHANAQUI",PICHANAQUI,CHANCHAMAYO,JUNIN,2,-11.002808,-74.815139
"CALLE FEDERICO ENGELS 110, URB. LA CALERA, SURQUILLO",SURQUILLO,LIMA,LIMA,2,-12.1142159,-77.010462
CALLE CESAR VALLEJO N° 1204,SANTIAGO DE CHUCO,SANTIAGO DE CHUCO,LA LIBERTAD,2,-12.0552692,-77.0901164
"CALLE 12 DE NOVIEMBRE S/N, LOTE 21 BARRIO 3 - SECTOR 7T, CENTRO POBLADO DE ALTO TRUJILLO",EL PORVENIR,TRUJILLO,LA LIBERTAD,2,-8.0516808,-79.0016911
CAL. SANTO DOMINGO NRO. 830 (PLAZA DE ARMAS),OLMOS,LAMBAYEQUE,LAMBAYEQUE,2,-5.9881884,-79.7472907
CA. REAL N° 600 N° 602,CHILCA,HUANCAYO,JUNIN,2,-12.0777922,-75.1825684
"C87J+QXW, CTRA. PANAMERICANA SUR, SAN ANTONIO 15605",SAN ANTONIO,LIMA,LIMA,2,-11.8064482,-76.7874076
"AV. NICOLAS AYLLON N° 4470 LOCALES LS 203 Y LS 204 , ATE. REFERENCIA REAL PLAZA PURUCHUCO.",ATE,LIMA,LIMA,2,-12.0387281,-76.896873
AV. NICOLAS AYLLON N° 416 -418,CHACLACAYO,LIMA,LIMA,2,-11.9576862,-76.7281432
AV. NICOLAS AYLLON N° 3236 A 2 CDRAS DE PLAZA VEA,SANTA ANITA,LIMA,LIMA,2,-12.0494148,-76.9645757
AV. NARANJAL N° 1431 - URB PARQUE NARANJAL,LOS OLIVOS,LIMA,LIMA,2,-11.9916722,-77.0709115
AV. N. ARRIOLA 2393,LA VICTORIA,LIMA,LIMA,2,-12.0641355,-77.0295563
"AV. PANAMERICANA N° 375 – 378 URBANIZACION SANTA ISABEL, DISTRITO DE PIURA- PIURA",PIURA,PIURA,PIURA,2,-5.1971376,-80.6267237
AV. PANAMERICANA NORTE - AV. UNIVERSITARIA Y AV. ZINC – LOS OLIVOS,LOS OLIVOS,LIMA,LIMA,2,-11.9916722,-77.0709115
"AV. PACIFICO 431, SAN MARTIN DE PORRES",SAN MARTIN DE PORRES,LIMA,LIMA,2,-11.9814786,-77.0963114
AV. PACHACUTEC 2201 (REFERENCIA PARADERO DEL TREN ELECTRICO VILLA MARIA DEL TRIUNFO - AL COSTADO DE ELECTRA).,VILLA MARIA DEL TRIUNFO,LIMA,LIMA,2,-12.1766438,-76.9189677
AV. OSCAR R. BENAVIDES 1395,LIMA,LIMA,LIMA,2,-11.8741121,-77.0132769
JR. SICAYA 110,EL AGUSTINO,LIMA,LIMA,2,-12.0499251,-76.9987104
JR. SEBASTIAN BARRANCA 1435,LA VICTORIA,LIMA,LIMA,2,-12.0641355,-77.0295563
"JR. SAN ROMAN 150, ZONA 4 BLOQUE B",JULIACA,SAN ROMAN,PUNO,2,-15.4932314,-70.1356177
"JR. REYNA FRAGE 098 ,ESQUINA AV.ATAHUALPA CON JR. SUCRE",CAJAMARCA,CAJAMARCA,CAJAMARCA,2,-7.1566682,-78.517306
AV. BALTA 1738,CHICLAYO,CHICLAYO,LAMBAYEQUE,2,-17.1931195,-70.9386676
"AV. AYACUCHO, LOTE 1, MZ. D, URB. LOS ROSALES, II ETAPA",SANTIAGO DE SURCO,LIMA,LIMA,2,-12.1251049,-76.9821605
AV. AVIACION 294 - 296,LA VICTORIA,LIMA,LIMA,2,-15.4788681,-70.1548855
AV. AVIACION 2897 CON AV. FRAY LUIS DE LEON,SAN BORJA,LIMA,LIMA,2,-12.0964515,-76.9956899
AV. AVENIDA RAIMONDI Nº 746 – HUARAZ – ANCASH,HUARAZ,HUARAZ,ANCASH,2,-9.5298511,-77.5289981
AV. ATAHUALPA N° 445,CAJAMARCA,CAJAMARCA,CAJAMARCA,2,-7.1566682,-78.517306
AV. ARNALDO MARQUEZ 1418,JESUS MARIA,LIMA,LIMA,2,-12.0835335,-77.0576826
AV. ARGENTINA N°401- 407 JR. PACASMAYO N°416 - 428,LIMA,LIMA,LIMA,2,-12.0459808,-77.0305912
C.C. DEL CONJUNTO RESIDENCIAL SAN FELIPE TDA 25,JESUS MARIA,LIMA,LIMA,2,-12.0751522,-77.043904
C. ECHENIQUE 300,IQUITOS,IQUITOS,LORETO,2,-12.0807479,-77.1057132
AV.SAN MARTIN N° 124 - 126,HUANTA,HUANTA,AYACUCHO,2,-13.9696538,-73.5898983
AV.PARDO Y ALIAGA 683 PISO 7,SAN ISIDRO,LIMA,LIMA,2,-12.0989209,-77.0346439
AV. VICTOR LARCO N° 1631 URB. FATIMA,VICTOR LARCO,TRUJILLO,LA LIBERTAD,2,-8.1163374,-79.0314697
"AV. VICTOR CASTRO IGLESIAS MZ N LT 21, URB. VALLE SARON",SAN JUAN DE MIRAFLORES,LIMA,LIMA,2,-12.1628581,-76.9635192
AV. VICTOR ANDRES BELAUNDE OESTE 413 - 415,COMAS,LIMA,LIMA,2,-11.9301639,-77.0649193
"AV. PORONGOCHE 500, PISO 1, LOCAL LF-4",PAUCARPATA,AREQUIPA,AREQUIPA,2,-16.4210931,-71.474928
AV. ALFREDO MENDIOLA 3609,LOS OLIVOS,LIMA,LIMA,2,-11.9998819,-77.062713
"AV. ALFREDO BENAVIDES N°3928, URB CHAMA",SANTIAGO DE SURCO,LIMA,LIMA,2,-12.1251049,-76.9821605
JR. TUPAC AMARU N°1176 ESQ. CALLE SUCRE Y JR. ENRIQUE P. CACERES,JULIACA,SAN ROMAN,PUNO,2,-15.4932314,-70.1356177
JR. TUPAC AMARU N° 892 . JULIACA. SAN ROMAN. PUNO,JULIACA,SAN ROMAN,PUNO,2,-15.4932314,-70.1356177
AV. ARGENTINA 210,LIMA,LIMA,LIMA,2,-12.0431684,-77.0447035
AV. ARENALES 760,JESUS MARIA,LIMA,LIMA,2,-12.2138325,-76.8793553
AV. ANTUNEZ DE MAYOLO 1337,LOS OLIVOS,LIMA,LIMA,2,-8.8932597,-78.5637999
AV. ANTONIO LORENA 394,SANTIAGO,CUSCO,CUSCO,2,-13.5251572,-71.9919699
"AV. ANGELICA GAMARRA S/N LT.1,2,3 MZ.D URBANIZACION TREBOL III ETAPA",LOS OLIVOS,LIMA,LIMA,2,-11.9916722,-77.0709115
AV. PARDO N° 4694 - PARQUE INDUSTRIAL GRAN CHAVIN,CHIMBOTE,SANTA,ANCASH,2,-9.0744966,-78.593609
AV. PRODUCCION NACIONAL 188,CHORRILLOS,LIMA,LIMA,2,-12.177412,-77.0176865
"AV. PRIMAVERA N°1016,",SURCO,LIMA,LIMA,2,-12.1468941,-76.9509707
AV. PRIMAVERA N° 1746 URB. MONTERRICO,SANTIAGO DE SURCO,LIMA,LIMA,2,-12.1040408,-76.9638969
AV. VENEZUELA 1202,BRENA,LIMA,LIMA,2,-12.0634443,-77.1098509
AV. VARGAS MACHUCA 300,SAN JUAN DE MIRAFLORES,LIMA,LIMA,2,-12.16541,-76.9727136
AV. SAN MARTIN 909,ICA,ICA,ICA,2,-13.9696538,-73.5898983
AV. SAN LUIS 2655,SAN BORJA,LIMA,LIMA,2,-12.095169,-76.9953228
AV. SAN LUIS 1975,SAN BORJA,LIMA,LIMA,2,-12.1109378,-76.9934682
AV. SAN IGNACIO N° 139,SAN IGNACIO,SAN IGNACIO,CAJAMARCA,2,-5.1462164,-79.0014934
AV. SALVADOR ALLENDE 480,VILLA MARIA DEL TRIUNFO,LIMA,LIMA,2,-12.1638013,-76.9528278
AV. SALAVERRY 780,CHICLAYO,CHICLAYO,LAMBAYEQUE,2,-12.0851009,-77.048867
AV TOMAS MARSANO 139,SURQUILLO,LIMA,LIMA,2,-18.051496,-70.2550571
AV. ALFREDO MENDIOLA N° 3491,LOS OLIVOS,LIMA,LIMA,2,-11.9549331,-77.0692403
AV. ALFREDO MENDIOLA 7897,LOS OLIVOS,LIMA,LIMA,2,-11.9998819,-77.062713
AV. ALFREDO MENDIOLA 3698,INDEPENDENCIA,LIMA,LIMA,2,-11.9959427,-77.0627683
AV. VALLEJO 202,TRUJILLO,TRUJILLO,LA LIBERTAD,2,-8.1116878,-79.018647
AV. UNIVERSITARIA NORTE N°206 URB. SAN FELIPE,COMAS,LIMA,LIMA,2,-11.9573015,-77.049757
AV. TUPAC AMARU N° 7197,INDEPENDENCIA,LIMA,LIMA,2,-11.9748202,-76.749978
AV. TUPAC AMARU N° 5185,COMAS,LIMA,LIMA,2,-11.9748202,-76.749978
AV. TUPAC AMARU 999,COMAS,LIMA,LIMA,2,-11.9567878,-77.0531396
AV NAVARRETE 645- SAN ISIDRO,SAN ISIDRO,LIMA,LIMA,2,-12.0928317,-77.0268281
AV MARISCAL RAMON CASTILLA 525,AYACUCHO,HUAMANGA,AYACUCHO,2,-12.0433096,-77.1217237
AV MARIANO MELGAR N° 456,BAGUA,BAGUA,AMAZONAS,2,-5.6390867,-78.5317246
AV LAS TORRES MZ A LT 8 URB EL PARAISO DE PTE HUACHIPA,ATE,LIMA,LIMA,2,-12.0387281,-76.896873
AV HUSARES DE JUNIN 293,TRUJILLO,TRUJILLO,LA LIBERTAD,2,-11.9141556,-77.0187059
AV EL SOL S/N - SJL,SAN JUAN DE LURIGANCHO,LIMA,LIMA,2,-11.9894897,-76.9977074
"P5WC+PV, LURIN 15823",LURIN,LIMA,LIMA,2,-12.2733688,-76.8688896
"MZ. N-1 LT. 5, LOCALES N° 1188, 1180 Y 1172, URB. LOS PINOS.",SAN JUAN DE LURIGANCHO,LIMA,LIMA,2,-12.0017252,-77.0084106
AV. TENIENTE FERRE N° 207,MIRAFLORES,AREQUIPA,AREQUIPA,2,-16.4032331,-71.5181963
AV. ROSA TORO 703,SAN LUIS,LIMA,LIMA,2,-12.0785749,-76.9943794
URB. VALENCIA C-14 UMACOLLO,YANAHUARA,AREQUIPA,AREQUIPA,2,-16.3881818,-71.5420539
URB LAS VIRREYNAS MZ D L T 2 ALT KM 36 ANTIGUA PANAMERICA SUR,LURIN,LIMA,LIMA,2,-12.2733688,-76.8688896
"RENE DESCARTES 114, ATE 15012",ATE,LIMA,LIMA,2,-12.0569817,-76.9480017
URB.VALLE SHARON AV. CESAR CANEVARO MZF LT11 - SJM,SAN JUAN DE MIRAFLORES,LIMA,LIMA,2,-12.1628581,-76.9635192
"R9P5+3W8, AV. EDUCATIVA, PIURA 20009",PIURA,PIURA,PIURA,2,-5.1971376,-80.6267237
ASOCIACION PROVIVIENDA LA ESTRELLA MZ.F LOTE 23,LOS OLIVOS,LIMA,LIMA,2,-11.9916722,-77.0709115
AREQUIPA #990,CERCADO,LIMA,LIMA,2,-16.3988667,-71.5369607
ANDRES AVELINO CACERES 222 CC REAL PLAZA DE CHICLAYO,CHICLAYO,CHICLAYO,LAMBAYEQUE,2,-6.7716146,-79.8387175
"X497+94Q, AV. TORREON, LIMA 15487",ATE,LIMA,LIMA,2,-12.0387281,-76.896873
ZONA INDUSTRIAL LOTE 7MARCONA,MARCONA,NAZCA,ICA,1,-15.2155331,-75.0830344
"98RJ+6CC, CTRA. PANAMERICANA SUR, SAN ANTONIO 15600",SAN ANTONIO,LIMA,LIMA,1,-11.8064482,-76.7874076
A. TUPAC AMARU N° 7879 URB. SAN JUAN BAUTISTA,COMAS,LIMA,LIMA,1,-11.9573015,-77.049757
"AA HH VILLA LOS REYES, MZ.E - LT.3, SECTOR 2",VENTANILLA,CALLAO,LIMA,1,-11.8373115,-77.1262405
"AAHH INTEGRACION LATINOAMERICANA, MZ. Y LT. 43.. ILO. ILO. MOQUEGUA",ILO,ILO,MOQUEGUA,1,-17.6458772,-71.3452005
AGUSTIN GAMARRA 715,LA VICTORIA,LIMA,LIMA,1,-12.0668708,-77.1575029
"AH. CIUDAD NUEVA MZ. 83, LT 15, COMITE 21. CIUDAD NUEVA. TACNA",CIUDAD NUEVA,TACNA,TACNA,1,-17.8513161,-70.1932649
APV PUEBLO LIBERTADOR MZ B LT 2 - 3 (A 1 CDRA. DEL PARADERO CACHIMAYO),SAN SEBASTIAN,CUSCO,CUSCO,1,-13.5336964,-71.9221543
ASENTAMIENTO POBLACIONAL ASOCIACION PRO VIVIENDA DE INTERES SOCIAL JAVIER LUNA PIZARRO MZ I LT 13 AUTOPISTA S/N,CERRO COLORADO,AREQUIPA,AREQUIPA,1,-16.2979991,-71.573948
ASENTAMIENTO POBLACIONAL ASOCIACION URBANIZADORA CIUDAD DE DIOS MZ O LOTE 5 SECTOR A,YURA,AREQUIPA,AREQUIPA,1,-16.2528829,-71.681378
"ATV SUR, CENTRO COMERCIAL CAYMA",CAYMA,AREQUIPA,AREQUIPA,1,-16.2793942,-71.4603116
"AU. PANAMERICANA NTE. 1057, PUENTE PIEDRA 15118",PUENTE PIEDRA,LIMA,LIMA,1,-11.8667978,-77.0778382
"AURELIO SOUZA 192, BARRANCO 15049",BARRANCO,LIMA,LIMA,1,-12.1391126,-77.0154175
SECTOR 1 MZ 129 LOTE 6 CENTRO POBLADO HUAMACHUCO,HUAMACHUCO,SANCHEZ CARRION,LA LIBERTAD,1,-7.8154676,-78.0487063
SECTOR PACHACHACA LT. G-1 YAULI,YAULI,JAUJA,JUNIN,1,-11.7129511,-75.4746334
"PUEBLO JOVEN PAMPLONA ALTA, MZ.A - LT.18",SAN JUAN DE MIRAFLORES,LIMA,LIMA,1,-12.1628581,-76.9635192
PUEBLO JOVEN CIUDAD BLANCA MZ R LOTE 6 ZONA C,PAUCARPATA,AREQUIPA,AREQUIPA,1,-16.4210931,-71.474928
PUEBLO JOVEN APURIMAC MZ L LOTE 1,ALTO SELVA ALEGRE,AREQUIPA,AREQUIPA,1,-16.3376419,-71.4968918
"PROLONGACION JR. 28 DE JULIO CDRA. 2 MZ 46, LOTE 10 (ANTES CENTRO POBLADO SAN MIGUEL DE PALLAQUES)",SAN MIGUEL,SAN MIGUEL,CAJAMARCA,1,-7.0698752,-78.9291686
AV EJERCITO 1055 CAYMA - AREQUIPA,AREQUIPA,AREQUIPA,AREQUIPA,1,-16.3889625,-71.5496745
"AV DIONISIO DERTEANO 184, OFIC. 1001, SAN ISIDRO",SAN ISIDRO,LIMA,LIMA,1,-12.0989209,-77.0346439
AV CARLOS IZAGUIRRE 524-526- LOS OLIVOS,LOS OLIVOS,LIMA,LIMA,1,-11.9911039,-77.0718209
"AV CANAVAL Y MOREIRA 452 , SAN ISIDRO PISO 10",SAN ISIDRO,LIMA,LIMA,1,-12.0989209,-77.0346439
AV ARGENTINA 3088 CERCADO DE LIMA,CERCADO DE LIMA,LIMA,LIMA,1,-12.0442341,-77.0471648
"AV ALEJANDRO TIRADO, 629 LIMA/ AV ALEJANDRO TIRADO, 344",LIMA,LIMA,LIMA,1,-12.0459808,-77.0305912
AV AGUSTIN GAMARRA 835 - HUARAZ,HUARAZ,HUARAZ,HUARAZ,1,-9.5355483,-77.5277249
AV 9 DE NOVIEMBRE 139,CAMANA,CAMANA,AREQUIPA,1,-16.6247458,-72.7132572
AV 3 DE ABRIL MZA C-2 LOTE 4,APLAO,CASTILLA,AREQUIPA,1,-16.0764611,-72.4921172
AV 27 DE NOVIEMBRE 251,LA MATANZA,MORROPON,PIURA,1,-12.0307215,-77.0840704
AV 24 DE JUNIO N° 121,POMALCA,CHICLAYO,LAMBAYEQUE,1,-12.1670466,-76.9234502
"PROLONGACION AV. GRAU N° 2216, MZ ""A"", LOTE N° 26, URBANIZACION LAS MERCEDES",PIURA,PIURA,PIURA,1,-5.1971376,-80.6267237
AV. PRIMAVERA N° 781 OFICINAS 401 Y 402,SAN BORJA,LIMA,LIMA,1,-12.0964515,-76.9956899
"AV. PRIMAVERA 607, SAN BORJA 15037",SAN BORJA,LIMA,LIMA,1,-12.1112442,-76.9923913
AV. VALLEJO 264 - TRUJILLO - LA LIBERTAD,TRUJILLO,TRUJILLO,LA LIBERTAD,1,-8.1111963,-79.0182174
"AV. URUGUAY N°767-777, URB. SAN JOSE DE PICHCUS",HUANCAYO,HUANCAYO,JUNIN,1,-12.068098,-75.2100953
AV. TUPAC AMARU N° 3857 – 3861,COMAS,LIMA,LIMA,1,-11.9748202,-76.749978
"AV. TUPAC AMARU 3001 - URB. HUAQUILLAY, COMAS (SEGUNDO PISO)",COMAS,LIMA,LIMA,1,-11.9573015,-77.049757
AV. TRINIDAD MORAN 103 - CAYMA,CAYMA,AREQUIPA,AREQUIPA,1,-16.3916704,-71.5484627
AV. RETAMALES N° 140,SAN JERONIMO,CUSCO,CUSCO,1,-13.5476646,-71.8952783
AV. REPUBLICA DE PANAMA 4679,SURQUILLO,LIMA,LIMA,1,-12.1386662,-77.0177158
AV. RAMON MUJICA 108 PISO 3,PIURA,PIURA,PIURA,1,-5.1971376,-80.6267237
AV. RAMON CASTILLA N° 860. LAMBAYEQUE,LAMBAYEQUE,LAMBAYEQUE,LAMBAYEQUE,1,-6.7899387,-79.8540446
AV. PUENTE PIEDRA NRO. 200 URB. CERCADO DE PUENTE PIEDRA LIMA - LIMA PUENTE PIEDRA,PUENTE PIEDRA,LIMA,LIMA,1,-11.8667978,-77.0778382
AV. TOMAS MARSANO CDRA. 28,SANTIAGO DE SURCO,LIMA,LIMA,1,-12.1251049,-76.9821605
"AV. TANTAMAYO MZ D LOTE 23, ASOCIACION SAN JUAN BAUTISTA",SAN MARTIN DE PORRES,LIMA,LIMA,1,-11.9814786,-77.0963114
AV. SIMON BOLIVAR 360 JOSE LEONARDO ORTIZ,MOSHOQUEQUE,CHICLAYO,CHICLAYO,1,-6.7461775,-79.839677
"AV. SANTO TORIBIO 173, EDIFICIO REAL 8, PISO 3 OFICINA 302 CENTRO EMPRESARIAL SAN ISIDRO",SAN ISIDRO,LIMA,LIMA,1,-12.0989209,-77.0346439
"AV. PRIMAVERA 607, OF. 409 - 302 -308, SAN BORJA",SAN BORJA,LIMA,LIMA,1,-12.0964515,-76.9956899
AV. PINTO MZ. K LT 7 (FRENTE POLVOS ROSADOS),TACNA,TACNA,TACNA,1,-18.01386,-70.2511032
"AV. PETIT THOUARS 4110, MIRAFLORES",MIRAFLORES,LIMA,LIMA,1,-12.116375,-77.0282801
AV. PETIT THOUARS 315,CERCADO DE LIMA,LIMA,LIMA,1,-12.081426,-77.0337666
AV. PERU 3612 - SAN MARTIN DE PORRES,SAN MARTIN DE PORRES,LIMA,LIMA,1,-12.0306115,-77.0865467
"AV. PERU 3328, SAN MARTIN DE PORRES 15106",SAN MARTIN DE PORRES,LIMA,LIMA,1,-12.0309917,-77.0833024
AV. PARDO Y ALIAGA 683 - PISO 5,SAN ISIDRO,LIMA,LIMA,1,-12.0989209,-77.0346439
AV. PANAMERICANA N° 821,MANAZO,PUNO,PUNO,1,-16.5631717,-69.037233
AV. PANAMERICANA N° 719 - 721,VIRU,VIRU,LA LIBERTAD,1,-16.5631717,-69.037233
AV. PUENTE PIEDRA 322,PUENTE PIEDRA,LIMA,LIMA,1,-11.8660613,-77.0733936
AV. PROLONGACION EJERCITO N° 632,CERRO COLORADO,AREQUIPA,AREQUIPA,1,-13.5221428,-71.9901555
AV. PROLONGACION ARIOSTO MATELLINI MZ O LT 12URB. SANTA LEONOR.,CHORRILLOS,LIMA,LIMA,1,-12.1709478,-77.02126
AV. PROCERES DE LA INDEPENDENCIA N° 3491 (ANTES MZ. B1 LOTE 02 - AVP LOS PINOS),SAN JUAN DE LURIGANCHO,LIMA,LIMA,1,-12.0017252,-77.0084106
AV. PROCERES DE LA INDEPENDENCIA N° 1947 - MZ. Z LT. 23A - SJL,SAN JUAN DE LURGANCHO,LIMA,LIMA,1,-12.0459808,-77.0305912
AV. PROCERES DE LA INDEPENDENCIA NRO. 1698 URB. LAS FLORES DE LIMA LIMA SJL,SAN JUAN DE LURIGANCHO,LIMA,LIMA,1,-12.0017252,-77.0084106
AV. PROCERES DE LA INDEPENDENCIA 1857 URB. S. HILARION,SAN JUAN DE LURIGANCHO,LIMA,LIMA,1,-11.9875225,-77.0083375
"C. CHINCHON 980, SAN ISIDRO 15046",SAN ISIDRO,LIMA,LIMA,1,-12.0956413,-77.0323842
"BOULEVARD SUR PLAZA, KILOMETRO 97.5 DE LA CARRETERA PANAMERICANA SUR, BLOCK N LOCAL 1 – ASIA",ASIA,CANETE,LIMA PROVINCIAS,1,-12.8033662,-76.4899568
"BARRIO MEDICO CHACARRUMI LT16, BARRIO CHACARRUMI",SAN MARCOS,HUARI,ANCASH,1,-9.5241213,-77.1572073
"AVENIDA VENEZUELA 2411, CERCADO DE LIMA",CERCADO DE LIMA,LIMA,LIMA,1,-12.0499601,-77.0291376
"AVENIDA RICARDO NAVARRETE 395, SAN ISIDRO",SAN ISIDRO,LIMA,LIMA,1,-12.0928317,-77.0268281
AVENIDA REVOLUCION 1845 - VES,VILLLA EL SALVADOR,LIMA,LIMA,1,-12.2006957,-76.9443659
AVENIDA MICAELA BASTIDAS N° 327 (P4),WANCHAQ,CUZCO,CUZCO,1,-13.5293361,-71.9552876
"AVENIDA AVIACION 4995, SURCO",SURCO,LIMA,LIMA,1,-12.1242239,-76.9993877
"AVENIDA 26 DE NOVIEMBRE N°1908 MZ Y LOTE 31, PUEBLO JOVEN VIRGEN DE LOURDES, AAHH NUEVA ESPERANZA",VILLA MARIA DEL TRIUNFO,LIMA,LIMA,1,-12.1766438,-76.9189677
AV.VINA DEL MAR 103,JACOBO HUNTER,AREQUIPA,AREQUIPA,1,-16.4453318,-71.5535399
"AV.MARIANO NUNEZ 654, JULIACA, SAN ROMAN, PUNO.",JULIACA,PUNO,PUNO,1,-15.4932314,-70.1356177
AV.COYASUYO2964,CUZCO,CUZCO,CUZCO,1,-13.5169542,-71.9792712
AV.28 DE JULIO NRO. 141 MZ E2 LTE 5 BARRIO PINGULLO,SIHUAS,SIHUAS,ANCASH,1,-8.5546662,-77.6312635
"AV. ZAMACOLA MZ. G, LOTE 3, URB. EL PEDREGAL",MAJES,CAYLLOMA,AREQUIPA,1,-16.3242988,-72.2878298
"AV. VICTOR RAUL HAYA DE LA TORRE MZ.B, LT. 04",PAITA,PAITA,PIURA,1,-5.0851637,-81.1136793
AV. VICTOR RAUL HAYA DE LA TORRE 4485,ATE,LIMA,LIMA,1,-4.9038058,-80.708165
CA. PASEO LA BRENA N° 206,HUANCAYO,HUANCAYO,JUNIN,1,-12.068098,-75.2100953
CA. LA MERCED N° 302 - LAREDO - TRUJILLO - LA LIBERTAD,LAREDO,LAREDO,LA LIBERTAD,1,-8.0860389,-78.9594536
CA. 7 DE JUNIO MZ. 20 LT. MN-6 CERCADO SAN MARTIN DE PANGOA SEC 002,PANGOA,SATIPO,JUNIN,1,-11.7553934,-74.3850308
AV. NEPENA MZ. N LTE. 16,CASMA,CASMA,ANCASH,1,-9.473361,-78.2995738
AV. MUNICIPAL 701 ASOC. 1° DE MAYO MZ B LT. 07. TACNA,CORONEL GREGORIO ALBARRACIN,TACNA,TACNA,1,-18.012297,-70.2551101
AV. MINERIA MZ 02 LTE 03,PACOCHA,ILO,MOQUEGUA,1,-17.4371991,-71.3472543
AV. MIGUEL GRAU SEMINARIO N° 147,HUACHO,HUAURA,LIMA PROVINCIAS,1,-4.6559552,-81.3054765
AV. MIGUEL DE CERVANTES N° 300 CF-01,CHICLAYO,CHICLAYO,LAMBAYEQUE,1,-6.7716146,-79.8387175
AV. PACHACUTEC YUPANQUI N°747-755 CENTRO POBLADO PARCONA CERCADO PRIMERA ETAPA,PARCONA,ICA,ICA,1,-14.046921,-75.6987179
AV. PACHACUTEC NO 2189 MZ. S PRIMER HOGAR POLICIAL - A.C.U. - CERCADO,VILLA MARIA EL TRIUNFO,LIMA,LIMA,1,-12.20603,-76.9291072
"AV. OSCAR R. BENAVIDES N° 3866 CENTRO COMERCIAL MALL PLAZA BELLAVISTA LOCAL LF 02, ZONA FINANCIERA SOTANO 1.",BELLAVISTA,CALLAO,LIMA,1,-12.0623905,-77.1286283
"AV. NUEVA CAJAMARCA N° 725 MZ. 12 LT. 08, DEL SECTOR NUEVA CAJAMARCA",NUEVA CAJAMARCA,RIOJA,SAN MARTIN,1,-5.9407861,-77.3092386
AV. NICOLAS DE PIEROLA N°1704,CERCADO DE LIMA,LIMA,LIMA,1,-12.0459827,-76.89032
"C.C. PARQUE CANEPA (JIRONES HUANUCO, HUMBOLDT, ANTONIO BAZO E HIPOLITO UNANUE)",LA VICTORIA,LIMA,LIMA,1,-12.0641355,-77.0295563
"C.C LA RAMBLA, JR. CENTENARIO 1561, BRENA 15083",BRENA,LIMA,LIMA,1,-12.0588096,-77.0458829
"C. MOQUEGUA 861, MOQUEGUA 18001",MOQUEGUA,MOQUEGUA,MOQUEGUA,1,-17.1938249,-70.9351863
CALLE ESPINAR 1874,CALCA,CUSCO,CUSCO,1,-13.4211219,-71.8516557
CALLE ESPILON N° 215.,CALLAO,CALLAO,CALLAO,1,-11.9496688,-77.1288139
CALLE ERNESTO RIVERO 716 TAMBOPATA,TAMBOPATA,TAMBOPATA,MADRE DE DIOS,1,-12.187271,-69.8479162
CALLE DERECHA 633 - HUARAL,HUARAL,HUARAL,HUARAL,1,-11.4945556,-77.2048235
CALLE COLON MZ. E1 LT. A1 – CASMA,CASMA,CASMA,ANCASH,1,-9.473361,-78.2995738
"CALLE BOLIVAR N°565, BARRIO CENTRAL, MZ.62-LT.3",OTUZCO,OTUZCO,LA LIBERTAD,1,-7.9024691,-78.5656753
"CALLE BOLIVAR N° 289 (ANTES MZ. 13, LOTE 21 SECTOR NORTE",SECHURA,SECHURA,PIURA,1,-5.5575353,-80.8223327
CALLE BOLIVAR N° 147,TUMBES,TUMBES,TUMBES,1,-11.9684853,-77.0894363
CALLE AREQUIPA NRO 178,MOLLENDO,ISLAY,AREQUIPA,1,-17.0292533,-72.0155447
CALLE AREQUIPA 330,MOLLENDO,ISLAY,AREQUIPA,1,-12.1866669,-77.0129461
CALLE ANCASH MZ. M LT 17,ANCON,LIMA,LIMA,1,-11.7738789,-77.1753353
CALLE AMADOR MERINO REYNA 339 SAN ISIDRO,SAN ISIDRO,LIMA,LIMA,1,-12.0927083,-77.0286505
CALLE 28 DE JULIO 129 MZ. E1 LT. 34D CENTRO POBLADO CRUZ DE MEDANO,MORROPE,LAMBAYEQUE,LAMBAYEQUE,1,-6.5403873,-80.0153619
"CALLE 25, MZ.64-LT.22, C.P SAN JACINTO",IGNACIO ESCUDERO,SULLANA,PIURA,1,-4.8292109,-80.8861754
CAL. AREQUIPA NRO. 222 (PLAZA DE ARMAS) PUNO CARABAYA MACUSANI,MACUSANI,CARABAYA,PUNO,1,-14.0684826,-70.4313639
"CA. SAN ROMAN, JORGE CHAVEZ Y UNION N°100-201-203-205 – JULIACA – SAN ROMAN - PUNO",JULIACA,JULIACA,PUNO,1,-15.49611,-70.131117
CALLE LIMA N° 406 CHEPEN,CHEPEN,CHEPEN,LA LIBERTAD,1,-7.2297561,-79.4290281
CALLE LIBERTAD N° 141,ICA,ICA,ICA,1,-11.9815727,-77.0232621
CALLE LAS ORQUIDEAS 675,SAN ISIDRO,LIMA,LIMA,1,-12.0939244,-77.0276216
"CALLE LAS ALONDRAS N°135-137, URBANIZACION SANTA ANITA",SANTA ANITA,LIMA,LIMA,1,-12.0494148,-76.9645757
CALLE JOSE CARLOS MARIATEGUI MZ R LT 03.,PAIMAS,AYABACA,PIURA,1,-4.6269859,-79.9453372
"CALLE HUARAZ 1561, BRENA.",BRENA,LIMA,LIMA,1,-12.0588096,-77.0458829
"CALLE GRAL RECAVARREN 111, MIRAFLORES 15074",MIRAFLORES,LIMA,LIMA,1,-12.1206214,-77.0294993
CALLE GAMARRA N° 362 - TRUJILLO,TRUJILLO,TRUJILLO,TRUJILLO,1,-8.2223726,-78.9743238
AV. MCAL CASTILLA N° 182,CHINCHA ALTA,CHINCHA,ICA,1,-13.417488,-76.1325726
"AV. MARTIRES DEL 4 DE NOVIEMBRE N°102 -108-112 ESQ. JR. TARAPACA N° 109-111, BARRIO DE CERRO COLORADO",JULIACA,SAN ROMAN,PUNO,1,-15.4932314,-70.1356177
AV. MARISCAL CASTILLA N° 1882,EL TAMBO,HUANCAYO,JUNIN,1,-12.1689664,-77.029252
AV. MARISCAL CASTILLA N° 140,CAMANA,CAMANA,AREQUIPA,1,-12.1689664,-77.029252
AV. MARISCAL CASTILLA N1615,EL TAMBO,HUANCAYO,JUNIN,1,-12.1689664,-77.029252
AV. MARISCAL BENAVIDES N° 998 - SAN VICENTE DE CANETE.,CANETE,CANETE,CANETE,1,-13.0703636,-76.3644584
AV. MARISCAL BENAVIDES N° 509 CHINCHA ALTA - CHINCHA,CHINCHA,CHINCHA,CHINCHA,1,-13.4206977,-76.1328349
AV. MARISCAL AGUSTIN GAMARRA N° 420,SAN LUIS,LIMA,LIMA,1,-12.0736464,-76.9941006
CALLE MIGUEL GRAU 221-231,TONGOD,SAN MIGUEL,CAJAMARCA,1,-11.8332712,-77.1094315
CALLE MIGUEL DASSO 185,SAN ISIDRO,LIMA,LIMA,1,-12.0989209,-77.0346439
CALLE MARISCAL URETA N° 1412,JAEN,JAEN,CAJAMARCA,1,-12.1084849,-76.8291233
"CALLE MANUEL ARTEAGA N°540 - URB. LOS PARQUES, CHICLAYO.",CHICLAYO,CHICLAYO,LAMBAYEQUE,1,-6.7716146,-79.8387175
"CALLE LOS CINES 295 , SAN ISIDRO",SAN ISIDRO,LIMA,LIMA,1,-12.0989209,-77.0346439
CALLE LORA Y CORDERO N° 745,CHICLAYO,CHICLAYO,LAMBAYEQUE,1,-6.7700751,-79.8351523
AV. MARGINAL N° 101,JAZAN,BONGARA,AMAZONAS,1,-12.0825452,-76.9848823
AV. MARCHAND N°212,MALA,CANETE,LIMA PROVINCIAS,1,-12.6659771,-76.6412167
AV. MANUEL DE LA TORRE 150. SANTA ANITA,SANTA ANITA,LIMA,LIMA,1,-12.0514134,-76.9703992
AV. MANUEL CALLO CEVALLOS N° 256 - 258,SICUANI,CANCHIS,CUSCO,1,-14.2729288,-71.2265322
AV. MANCO CAPAC Nº 201 Y JR. RAYMONDI,LA VICTORIA,LIMA,LIMA,1,-12.0641355,-77.0295563
"AV. LURIGANCHO 997, SAN JUAN DE LURIGANCHO",SAN JUAN DE LURIGANCHO,LIMA,LIMA,1,-12.0162569,-76.9992319
AV. LOS PROCERES 1030 - CENTRO COMERCIAL PENTA MALL SANTIAGO DE SURCO.,SANTIAGO DE SURCO,LIMA,LIMA,1,-12.1251049,-76.9821605
AV. LOS MAESTROS ( EX. PAN.SUR) ENTRE AYABACA Y CUTERVO,ICA,ICA,ICA,1,-14.0640967,-75.7290915
AV. LOS INCAS N°192,MARCONA,NAZCA,ICA,1,-16.4212433,-71.5409025
CALLE LIMA N° 449,PIMENTEL,CHICLAYO,LAMBAYEQUE,1,-12.0417527,-77.1049333
CALLE SAN CAMILO 221,AREQUIPA,AREQUIPA,AREQUIPA,1,-16.4024537,-71.5348136
CALLE SABANDIA MZ-F LOTE 17,AREQUIPA,CAYLLOMA,MAJES,1,-16.3541089,-72.1866287
CALLE PUERTO RICO 197 - TRUJILLO,TRUJILLO,TRUJILLO,LA LIBERTAD,1,-8.1187981,-79.030738
"CALLE PROGRESO MZ 27 A, LT 13, SECTOR 1, POSESION INFORMAL, CERCADO DE CAYALTI",CAYALTI,CHICLAYO,LAMBAYEQUE,1,-6.8922228,-79.5620121
CALLE PROGRESO 237,PISCO,PISCO,ICA,1,-12.1905897,-76.9899229
AV. LOS INCAS N° 905,LA VICTORIA,CHICLAYO,LAMBAYEQUE,1,-16.4212433,-71.5409025
AV. LOS HEROES 386,CAJAMARCA,CAJAMARCA,CAJAMARCA,1,-12.0166852,-77.0623103
"AV. LOS CHANCAS 286-288, (LOTE 21 DE LA MZ J-B ) COOPERATIVA DE VIVIENDA SANTA ANITA",SANTA ANITA,LIMA,LIMA,1,-12.0494148,-76.9645757
AV. LOS ANGELES 602 URB. COMAS 15314,COMAS,LIMA,LIMA,1,-11.9369405,-77.0663266
"AV. LOS ANGELES 602 URB, COMAS",COMAS,LIMA,LIMA,1,-11.9369405,-77.0663266
AV. LIBERTAD N° 451 MZ D LT 2,COCACHACRA,ISLAY,AREQUIPA,1,-17.0894045,-71.7592172
AV. LARCO 665 MIRAFLORES,MIRAFLORES,LIMA,LIMA,1,-12.1238847,-77.0291879
CALLE MORELLI 185 A ESPALDAS DEL CENTRO COMERCIAL LA RAMBLA DE SAN BORJA,SAN BORJA,LIMA,LIMA,1,-12.0964515,-76.9956899
CALLE MORAL 318,AREQUIPA,AREQUIPA,AREQUIPA,1,-16.3969616,-71.5377816
"CALLE MONTE ROSA 256, SURCO",SURCO,LIMA,LIMA,1,-11.8678175,-76.4576592
CALLE MIRAFLORES MZ. T1 LOTE 04,SANTO TOMAS,CHUMBIVILCAS,CUSCO,1,-14.4500414,-72.081998
CAMINO REAL 390,SAN ISIDRO,LIMA,LIMA,1,-12.0974121,-77.036902
CALLE. INDEPENDENCIA N° 139 - PISCO,PISCO,PISCO,PISCO,1,-13.7138616,-76.2028939
"CALLE VIRGILIO DALLORSO N° 115-A, CHICLAYO PRIMER PISO",CHICLAYO,CHICLAYO,LAMBAYEQUE,1,-6.7716146,-79.8387175
"CALLE UNO, CASA N°1-710, MZ.0837, BARRIO DE MIRAFLORES",LOS ORGANOS,TALARA,PIURA,1,-4.179643,-81.1286825
CALLE TARMA 311,CHANCHAMAYO,CHANCHAMAYO,JUNIN,1,-11.7355618,-77.1434284
CALLE TACNA N° 628 - OTUZCO - LA LIBERTAD,OTUZCO,OTUZCO,LA LIBERTAD,1,-7.9024691,-78.5656753
CALLE SUCRE 765 (FRENTE A LA PLAZA DE ARMAS),HUARAZ,HUARAZ,ANCASH,1,-9.5298511,-77.5289981
CALLE SIMON BOLIVAR N° 1247-1249,JAEN,JAEN,CAJAMARCA,1,-5.7086087,-78.8075898
"AV. LA MOLINA CDRA. 3, ATE 15012",ATE,LIMA,LIMA,1,-12.0387281,-76.896873
AV. LA MARINA 2527 - SAN MIGUEL,SAN MIGUEL,LIMA,LIMA,1,-12.0729123,-77.1031775
AV. LA CULTURA 1128 CON JR. CAHUIDE - CUZCO,CUSCO,CUSCO,CUSCO,1,-13.5170887,-71.9785356
"AV. JOSE PARDO 175, MIRAFLORES 15074",MIRAFLORES,LIMA,LIMA,1,-12.1191489,-77.032302
CALLE SHELL 517,MIRAFLORES,LIMA,LIMA,1,-12.1206214,-77.0294993
CALLE SANTAROSA # 401,MORROPE,LAMBAYEQUE,LAMBAYEQUE,1,-6.5403873,-80.0153619
"CALLE SAN JOSE N° 407 (ANTES MZ. 23, LOTE 1, PUEBLO TRADICIONAL MOCHUMI)",MOCHUMI,LAMBAYEQUE,LAMBAYEQUE,1,-6.5474461,-79.8645893
CALLE SAN JOSE N° 222,OYOTUN,CHICLAYO,LAMBAYEQUE,1,-12.1894046,-76.9755834
"CENTRO POBLADO VILLA AGUAYTIA MZ. Q, LOTE 3",PADRE ABAD,PADRE ABAD,UCAYALI,1,-8.91165,-75.6301604
"CENTRO POBLADO SEMI-RURAL PACHACUTEC, GRUPO ZONAL N° 10, ZONA D, MZ 52 LOTE 9D, SECCION 1 Y SECCION 2",CERRO COLORADO,AREQUIPA,AREQUIPA,1,-16.2979991,-71.573948
"CENTRO POBLADO PAUCARTAMBO MZ D4, LOTE 7",PAUCARTAMBO,PAUCARTAMBO,CUSCO,1,-13.3176052,-71.5959691
CENTRO COMERCIAL REAL PLAZA DE SANTA CLARA,ATE VITARTE,LIMA,LIMA,1,-12.0157644,-76.8867461
CENTRO COMERCIAL LA RAMBLA AVENIDA JAVIER PRADO 2010C.C. LA RAMBLA 1 ER PISO TIENDA 135,SAN BORJA,LIMA,LIMA,1,-12.0964515,-76.9956899
"CC REAL PLAZA, CTRA. CENTRAL KM. 10.5, ATE 15487",ATE,LIMA,LIMA,1,-12.0387281,-76.896873
CASA N° 310 AV. ANTONIO LORENA DE LA URBANIZACION JERUSALEN - SAN JERONIMO – CUZCO - CUZCO,SAN JERONIMO,CUZCO,CUZCO,1,-13.5585733,-71.8883114
CARRETERA VIA EVITAMIENTO - CHICLAYO,CHICLAYO,CHICLAYO,LAMBAYEQUE,1,-6.7716146,-79.8387175
AV. JOSE M. EGUREN 599 (EX-GRAU),BARRANCO,LIMA,LIMA,1,-12.1496977,-77.0212908
"AV. JOSE DE LAMA 365, BARRIO LETICIA MZ. 12, LT.02,",SULLANA,SULLANA,PIURA,1,-4.8900643,-80.6873604
"AV. JOSE BALTA 608, CHICLAYO 14001",CHICLAYO,CHICLAYO,CHILAYO,1,-6.7764338,-79.8388542
"AV. JOSE ABELARDO QUINONEZ, LOTE LAS NINFAS – 2 LOCAL COMERCIAL LF 03 Y LF 02, ZONA URBANA SAN JUAN BAUTISTA",IQUITOS,MAYNAS,LORETO,1,-3.749365,-73.2444145
AV. JORGE CHAVEZ 501 BL B ZONA 1 URB. LAS MERCEDES,JULIACA,SAN ROMAN,PUNO,1,-15.4932314,-70.1356177
"AV. JAVIER PRADO ESTE 3536, SAN BORJA 15037",SAN BORJA,LIMA,LIMA,1,-12.0863229,-76.987992
CARRETERA PANAMERICANA NORTE KM. 561 VALLE STA. CATALINA LARREA,TRUJILLO,TRUJILLO,LA LIBERTAD,1,-8.1116778,-79.0287742
CAMPAMENTO SOUTHERN PERU - AV. PLAZA S/N VILLA BOTIFLACA,TORATA,MARISCAL NIETO,MOQUEGUA,1,-17.0765697,-70.8443485
"EMILIANO NINO 508, PUEBLO TRADICIONAL , MOTUPE",MOTUPE,LAMBAYEQUE,LAMBAYEQUE,1,-6.1544303,-79.717074
"DEL CENNTENARIO MZ B5, SAN MARTIN DE PORRES 15112",SAN MARTIN DE PORRES,LIMA,LIMA,1,-11.9814786,-77.0963114
CUTERVO N° 116,SANTA CRUZ,SANTA CRUZ,CAJAMARCA,1,-6.3790362,-78.8157238
"CTRA. PANAMERICANA N, TUMBES 24002",TUMBES,TUMBES,TUMBES,1,-3.5848176,-80.4732873
AV. ISLAY S/N MZ. I LT. 2-B,CAYLLOMA,CAYLLOMA,AREQUIPA,1,-15.1885771,-71.7729945
"AV. INCA PACHACUTEC MZ.B1, LT.16 (ANEXO 22)",SAN ANTONIO,HUAROCHIRI,LIMA,1,-11.8064482,-76.7874076
AV. INCA GARCILAZO DE LA VEGA 1390-1394,LIMA,LIMA,LIMA,1,-12.060628,-77.0035995
AV. IMPERIO DE LOS INCAS S/N.,MACHUPICCHU,URUBAMBA,CUZCO,1,-13.1551717,-72.5256609
"AV. HUANCANE 210, JULIACA 21103",JULIACA,SAN ROMAN,PUNO,1,-15.4748758,-70.1146962
AV. HORACIO ZEVALLOS 421,LA OROYA,YAULI,JUNIN,1,-12.0031927,-77.0777638
AV. GUSTAVO PINTO 362,TACNA,TACNA,TACNA,1,-18.0043687,-70.2423898
AV. GUARDIA CIVIL N° 312,CHORRILLOS,LIMA,LIMA,1,-12.0905938,-77.0080075
AV. GUARDIA CIVIL MZ B LOTE 12 AAHH MARIA GORETTI,CASTILLA,PIURA,PIURA,1,-5.115365,-80.5340462
AV. GRAU N° A-39 URB. CASCO,PARINAS,TALARA,PIURA,1,-4.488083,-81.0619503
CORONEL PORTILLO 623,CALLERIA,CORONEL PORTILLO,UCAYALI,1,-12.3227602,-74.0125348
CENTRO POBLADO VILLA RICA CERCADO MZ D LT 13 CON FTE A LA AV. LEOPOLDO KRAUSS 498(PUERTA PRINCIPAL),VILLA RICA,OXAPAMPA,PASCO,1,-10.7351432,-75.2676019
JIRON ASAMBLE 289- AYACUCHO,AYACUCHO,AYACUCHO,AYACUCHO,1,-13.1604269,-74.2256973
"JIRON 3, MZ W, LOTE 21, PUEBLO JOVEN 3 DE OCTUBRE",SOCABAYA,AREQUIPA,AREQUIPA,1,-16.4689321,-71.5380727
INTERSECCION JR. SALAMANCA CDRA. 10 Y JR. ORTIZ ARRIETA CDRA. 2,CHACHAPOYAS,CHACHAPOYAS,AMAZONAS,1,-6.2293182,-77.8714631
"GASPAR HERNADEZ UNDEFINED, LIMA, PERU",LIMA,LIMA,LIMA,1,-12.0459808,-77.0305912
"G536+J8F, LA JOYA 04405",LA JOYA,AREQUIPA,AREQUIPA,1,-16.4235536,-71.8178329
AV. GRAU N° 521 – CENTRO DE ZORRITOS,ZORRITOS,CONTRALMIRANTE VILLAR,TUMBES,1,-3.680529,-80.6797377
AV. GRAU 410 SOTANO Y 1ER PISO,LA VICTORIA,LIMA,LIMA,1,-12.0641355,-77.0295563
AV. GRAN CHIMU NRO. 810 URB. ZARATE (CHIMU 810) LIMA - LIMA - SAN JUAN DE LURIGANCHO,SAN JUAN DE LURIGANCHO,LIMA,LIMA,1,-12.0017252,-77.0084106
AV. GRAN CHIMU 827,SAN JUAN DE LURIGANCHO,LIMA,LIMA,1,-12.0417315,-76.9664375
"AV. GRAL. JUAN ANTONIO ALVAREZ DE ARENALES, JESUS MARIA 15072",JESUS MARIA,LIMA,LIMA,1,-12.0751522,-77.043904
AV. GIRALDEZ 288. CERCADO DE HUANCAYO,HUANCAYO,HUANCAYO,JUNIN,1,-12.068098,-75.2100953
AV. GARZON Nº 1319 - JESUS MARIA,JESUS MARIA,LIMA,LIMA,1,-12.0641663,-77.0440016
AV. GARCILAZO 506. WANCHAQ. CUSCO,WANCHAQ,CUSCO,CUSCO,1,-13.5293361,-71.9552876
ESQUINA DE CALLE PROCURADORES Y PORTAL DE HARINAS N° 177,CUZCO,CUZCO,CUZCO,1,-13.5169542,-71.9792712
ESQ. INDEPENDENCIA – ALFONSO UGARTE N° 290 -298 VIRU - LA LIBERTAD,VIRU,VIRU,LA LIBERTAD,1,-8.4169,-78.7623
"ESQ AV. ANDRES AVELINO CACERES CON AV. GUILLERMO IRAZOLA LOCALES N° 32, 33 Y 33B (ALT. 4TO PUENTE).",CASTILLA,PIURA,PIURA,1,-5.115365,-80.5340462
"JIRON VIRU N° 190 URB BRENA PACHECO, EL TAMBO",EL TAMBO,HUANCAYO,JUNIN,1,-11.97218,-75.1473422
"JIRON PABLO BERMUDEZ 181, LIMA 15046",CERCADO DE LIMA,LIMA,LIMA,1,-12.0723933,-77.0362839
JIRON MIGUEL GRAU N° 430,PEDRO GALVEZ,SAN MARCOS,CAJAMARCA,1,-16.4364331,-71.5397124
JIRON MARCHAND N°143,SAN PEDRO DE MALA,CANETE,LIMA PROVINCIAS,1,-12.1022141,-77.0022707
JIRON INDEPENDENCIA CRDAS. 16 Y 17,HUANUCO,HUANUCO,HUANUCO,1,-9.9293255,-76.2394845
AV. FERROCARRIL NRO. 1035 PISO 1(C.C. REAL PLAZA) JUNIN - HUANCAYO,HUANCAYO,HUANCAYO,JUNIN,1,-12.068098,-75.2100953
AV. FERROCARRIL NRO. 1035 INT. LS03 PISO 2 (C.C. REAL PLAZA) JUNIN -,HUANCAYO,HUANCAYO,JUNIN,1,-12.068098,-75.2100953
AV. FERROCARRIL N 1035,HUANCAYO,HUANCAYO,JUNIN,1,-15.8257619,-70.0105353
AV. ENCALADA 695,SANTIAGO DE SURCO,LIMA,LIMA,1,-12.0349159,-76.9637465
AV. EMANCIPACION Nº 184 - TDA. 104 1° PISO - CERCADO DE LIMA,EMANCIPACION,LIMA,LIMA,1,-12.0476129,-77.0359891
AV. ELMER FAUCETT S/N Y TOMAS VALLE,CALLAO,CALLAO,LIMA,1,-11.9496688,-77.1288139
"AV. ELMER FAUCETT 149, SAN MIGUEL 15088",SAN MIGUEL,LIMA,LIMA,1,-12.0742252,-77.0990394
AV. EL TRIUNFO N° 101 1ER° PISO,VILLA MARIA DEL TRIUNFO,LIMA,LIMA,1,-12.1766438,-76.9189677
"JIRON GASPAR HERNANDEZ, LIMA 15079, PERU",LIMA,LIMA,LIMA,1,-12.0459808,-77.0305912
JIRON DAMASO BERAUN N°915 HUANUCO,HUANUCO,HUANUCO,HUANUCO,1,-9.9293255,-76.2394845
JIRON CARPACCIO 250 - OFICINA 612,SAN BORJA,LIMA,LIMA,1,-12.0964515,-76.9956899
JR. ALFONSO UGARTE S/N (ANTES DENOMINADO LOTE 1 DE LA MANZANA M DEL CENTRO POBLADO LAS LOMAS),LAS LOMAS,PIURA,PIURA,1,-4.6578078,-80.2433237
JR. ALEJANDRO O.DEUSTUA 431 - EL TAMBO -HUANCAYO,HUANCAYO,HUANCAYO,HUANCAYO,1,-12.068098,-75.2100953
JR. ADRIANZEN N° 572,MORROPON,MORROPON,PIURA,1,-5.1842922,-79.9717204
JR. 9 DE JULIO N° 346,CONCEPCION,CONCEPCION,JUNIN,1,-11.918435,-75.3130386
JR. 7 DE JUNIO 200 ESQUINA CON JR. ZAVALA,CALLERIA,CORONEL PORTILLO,UCAYALI,1,-7.8964619,-74.1845474
JR. 28 DE JULIO N°342. DESAGUADERO. CHUCUITO. PUNO,DESAGUADERO,CHUCUITO,PUNO,1,-16.564809,-69.0401545
JR. 27 DE NOVIEMBRE # 581,CHOTA,CHOTA,CAJAMARCA,1,-6.5614846,-78.6509551
JR. 25 DE DICIEMBRE SUB LOTE 3,AYAVIRI,MELGAR,PUNO,1,-14.8818397,-70.5900142
JR LIMA 546,PANAO,PACHITEA,HUANUCO,1,-11.967575,-77.0113689
JR JOSE GALVEZ S/N - TAYABAMBA - PATAZ - LA LIBERTAD,TAYABAMBA,TAYABAMBA,LA LIBERTAD,1,-8.2742,-77.2963
JR ICA NRO 699 MZ 53 LOTE 4 CASCO URBANO,CATACAOS,PIURA,PIURA,1,-5.2654817,-80.6760774
JR CASTILLA - 417,TAMBO GRANDE,PIURA,PIURA,1,-7.3649296,-78.8036191
"JR AYACUCHO S/N MZ Y1 LT 5, CENTRO POBLADO PAUCARA",PAUCARA,PAUCARA,HUANCAVELICA,1,-12.7299492,-74.6662329
JR ARICA N° 221,URCOS,QUISPICANCHI,CUSCO,1,-13.6879153,-71.6255835
JR ANCASH N° 920 PARQUE BARRIO SAN BARTOLOME,HUARI,HUARI,ANCASH,1,-9.3484957,-77.1722483
JOSE LEONARDO ORTIZ 14000,ILO,CHICLAYO,LIMA,1,-6.7575397,-79.8307269
JR. AYACUCHO N° 282,HUANCAYO,HUANCAYO,JUNIN,1,-12.068098,-75.2100953
JR. ARICA 1100,BELEN,MAYNAS,LORETO,1,-3.849332,-73.2524399
JR. AREQUIPA N° 1005 CERCADO,PUNO,PUNO,PUNO,1,-12.0848783,-75.2034845
JR. APURIMAC N° 686-688.,CHULUCANAS,MORROPON,PIURA,1,-5.0965065,-80.1609229
AV. EL TRAPICHE S/N MZ. 60 LT 22,PATAPO,CHICLAYO,LAMBAYEQUE,1,-6.7380722,-79.6391387
AV. EL SOL 382 CENTRO HISTORICO CUZCO – CUZCO – CUZCO,CUZCO,CUZCO,CUZCO,1,-13.5169542,-71.9792712
AV. EL SOL 120. BARRIO BELLAVISTA. PUNO,PUNO,PUNO,PUNO,1,-15.8368788,-70.0229808
"AV. EL SANTUARIO N°1323 -1325, URB. ZARATE",SAN JUAN DE LURIGANCHO,LIMA,LIMA,1,-12.0017252,-77.0084106
AV. EL PROGRESO N° 471.,CARHUAZ,CARHUAZ,ANCASH,1,-9.2817496,-77.646261
AV. EL DORADO N° 1265 - JOSE LEONARDO ORTIZ - CHICLAYO - LAMBAYEQUE,JOSE LEONARDO ORTIZ,CHICLAYO,LAMBAYEQUE,1,-6.7575905,-79.8542979
"AV. EL DERBY 254, SURCO",SURCO,LIMA,LIMA,1,-12.0976027,-76.9728728
AV. EL DERBY 055 CENTRO EMPRESARIAL CRONOS TORRE 4 PISO 3,SANTIAGO DE SURCO,LIMA,LIMA,1,-12.1251049,-76.9821605
AV. EJERCITO N° 793 PISO 5,CAYMA,AREQUIPA,AREQUIPA,1,-16.2793942,-71.4603116
"AV. DOS DE MAYO N° 1199 , ESQUINA CON CALLE LOS ROBLES N° 205 - 209 , URBANIZACION FUNDO ORRANTIA, SAN ISIDRO",SAN ISIDRO,LIMA,LIMA,1,-12.0989209,-77.0346439
JR. ALMIRANTE GRAU 711,RIOJA,RIOJA,SAN MARTIN,1,-6.0627128,-77.1677322
JR. ALMIRANTE GRAU 393,SAN VICENTE DE CANETE,CANETE,LIMA PROVINCIAS,1,-13.077767,-76.3874465
JR. COMERCIO PUERTA COMERCIAL N° 1334,LA UNION,DOS DE MAYO,HUANUCO,1,-9.8284557,-76.8013469
JR. COMERCIO N° 1160,CHIQUIAN,BOLOGNESI,ANCASH,1,-10.152032,-77.1568233
AV. DIAZ BARCENAS N° 917 ABANCAY-APURIMAC,ABANCAY,ABANCAY,APURIMAC,1,-13.6355142,-72.8791695
AV. DE LA CULTURA 2111 URB. MAJISTERIO,CUSCO,CUSCO,CUSCO,1,-13.5170887,-71.9785356
"AV. DANIEL ALCIDES CCARRION 941, AREQUIPA 04002",JOSE LUIS BUSTAMANTE Y RIVERO,AREQUIPA,AREQUIPA,1,-16.4331715,-71.5233141
AV. DANIEL ALCIDES CARRION 227 - REF. LA PAMPILLA,AREQUIPA,AREQUIPA,AREQUIPA,1,-16.3988667,-71.5369607
AV. CONDORCANQUI N° 1252 – LA ESPERANZA - TRUJILLO - LA LIBERTAD,LA ESPERANZA,TRUJILLO,LA LIBERTAD,1,-8.0633115,-79.0590158
AV. COLLASUYO NRO. 2964 INT. 203 (TDA. REAL PLAZA CUZCO) CUZCO - CUZCO –,CUZCO,CUZCO,CUZCO,1,-13.5169542,-71.9792712
AV. CIRCUNVALACION 2147 URB. EL PINO,SAN LUIS,LIMA,LIMA,1,-12.0715293,-76.9937699
AV. CICUMV. ARENALES N°217,CHAUPIMARCA,PASCO,PASCO,1,-10.6978799,-76.2495433
JR. CALLE 7 DE JUNIO NRO. 625,SAN MARTIN DE PANGOA,SATIPO,JUNIN,1,-11.42842,-74.4885836
JR. CAILLOMA Nº 466-474-478-498 Y AV. DE LA EMANCIPACION Nº 300-308-312,LIMA,LIMA,LIMA,1,-12.0459808,-77.0305912
JR. BOLOGNESI 349-353,OXAPAMPA,OXAPAMPA,PASCO,1,-7.3651683,-78.8041253
JR. BOLIVAR N° 1198,JAUJA,JAUJA,JUNIN,1,-5.9214351,-77.3147335
JR. BOLIVAR 308,OXAPAMPA,OXAPAMPA,PASCO,1,-5.9214351,-77.3147335
JR. BOLIVAR 1117,COLAN,PAITA,PIURA,1,-5.9214351,-77.3147335
JR. HUALLAGA N° 734,JUANJUI,MARISCAL CACERES,SAN MARTIN,1,-7.2720033,-76.7508655
JR. HUALLAGA 737 - 739 - 741,JUANJUI,MARISCAL CACERES,SAN MARTIN,1,-7.2720033,-76.7508655
JR. GUILLERMO CACERES TRESIERRA Nº 369 - 371,ANDAHUAYLAS,ANDAHUAYLAS,APURIMAC,1,-13.6564057,-73.3899459
JR. GRAU 333 PUNO,PUNO,PUNO,PUNO,1,-15.8405962,-70.0279512
JR. FREDY ALIAGA 136 C-01 MZ C0(30),TOCACHE,TOCACHE,SAN MARTIN,1,-8.1887651,-76.510263
JR. FRANCISCO IRAZOLA 251 SATIPO,SATIPO,SATIPO,JUNIN,1,-11.2558599,-74.635278
AV. CHACHI DIBOS 1201,CHORRILLOS,LIMA,LIMA,1,-12.1709478,-77.02126
AV. CHACHAPOYAS N° 2376,BAGUA GRANDE,UTCUBAMBA,AMAZONAS,1,-5.7537273,-78.4453314
AV. CESAR VALLEJO N° 311 URB. PALERMO,TRUJILLO,TRUJILLO,LA LIBERTAD,1,-8.1116778,-79.0287742
AV. CENTENARIO 4614 - CENTRO COMERCIAL OPEN PLAZA,YARINACOCHA,CORONEL PORTILLO,UCAYALI,1,-8.3548391,-74.5758217
AV. CELESTINO MANCHEGO MUNOZ N° 298,HUANCAVELICA,HUANCAVELICA,HUANCAVELICA,1,-12.7853861,-74.9665748
AV. CAQUETA N° 998,RIMAC,LIMA,LIMA,1,-12.0266773,-77.0340939
AV. CAMINO REAL N° 1281 PISO 7,SAN ISIDRO,LIMA,LIMA,1,-12.0989209,-77.0346439
JR. FACUNDO VARILLAS S/N PARQUE VIGIL - HUARI - HUARI - ANCASH,HUARI,HUARI,ANCASH,1,-9.3484957,-77.1722483
JR. DOS DE MAYO N° 335 - 337. BARRIO SANTA BARBARA. ILAVE. EL COLLAO. PUNO,ILAVE,EL COLLAO,PUNO,1,-16.086789,-69.6385874
JR. DOS DE MAYO NRO. 324-330,IMPERIAL,CANETE,LIMA PROVINCIAS,1,-13.0610167,-76.3529217
"AV. BALTA N° 176 - 179, ESQ. CON BOLOGNESI",BALTA,CHICLAYO,CHICLAYO,1,-6.8644684,-79.8148782
"JR. LIMA 734, MZ S, LT 5",TACABAMBA,CHOTA,CAJAMARCA,1,-6.3929949,-78.6112435
JR. LIMA 543,TARMA,TARMA,JUNIN,1,-11.967575,-77.0113689
"JR. LIMA 496, ESQUINA CON CALLE. MIGUEL GRAU. NAZCA - ICA",NAZCA,NAZCA,ICA,1,-14.8277203,-74.9370624
JR. LIMA 360,SAN PABLO,SAN PABLO,CAJAMARCA,1,-12.0497279,-77.0301259
JR. LIMA 290 MZ. 58 LOTE 1 - TAMBOGRANDE – PIURA,TAMBOGRANDE,PIURA,PIURA,1,-4.9353455,-80.3424013
JR. LIBERTAD 545-549,SANTA ANA,LA CONVENCION,CUZCO,1,-11.9604211,-77.0396988
JR. JUNIN 785,JAUJA,JAUJA,JUNIN,1,-12.0489122,-77.0235818
JR. JULIO BELLIDO 503 - SAN JUAN DE MIRAFLORES,SAN JUAN DE MIRAFLORES,LIMA,LIMA,1,-12.1628581,-76.9635192
JR. JOSE SABOGAL N° 321 - CAJAMARCA - CAJAMARCA - CAJAMARCA,CAJAMARCA,CAJAMARCA,CAJAMARCA,1,-7.1566682,-78.517306
"JR. JOSE GABRIEL CONDORCANQUI N° 2125 (PUEBLO JOVEN LA ESPERANZA SECTOR JERUSALEN BARRIO 1, MZ 4 LOTE 11), DISTRITO LA ESPERANZA, PROVINCIA DE TRUJILLO, DEPARTAMENTO DE LA LIBERTAD",LA ESPERANZA,TRUJILLO,LA LIBERTAD,1,-8.0633115,-79.0590158
"JR. JOSE DE SUCRE 659, CERCADO",HUARAZ,HUARAZ,ANCASH,1,-9.5298511,-77.5289981
JR. JAQUIJAHUANA N° 335,ANTA,ANTA,CUSCO,1,-13.4715992,-72.1487471
"JR. INDEPENDENCIA NRO. 16 (CDRA 16 Y 17, LOCAL 102- CC REAL PLAZA) HUANUCO",HUANUCO,HUANUCO,HUANUCO,1,-9.9293255,-76.2394845
JR. HUAYNA CAPAC 130 (CERCA DE CENTRO COMECIAL # 2),JULIACA,SAN ROMAN,PUNO,1,-15.4932314,-70.1356177
JR. HUANCANE N° 169 LT 5 MZ. Z,AZANGARO,AZANGARO,PUNO,1,-14.9095426,-70.1956194
JR. PEDRO RUIZ GALLO 418,CALLAO,CALLAO,LIMA,1,-11.9496688,-77.1288139
JR. PARURO 807,LIMA,LIMA,LIMA,1,-12.0513532,-77.0245889
JR. OQUENDO N° 248,PUNO,PUNO,PUNO,1,-15.8405962,-70.0279512
JR. MARISCAL CACERES MZ E1 LOTE 3 SECTOR CERCADO DE TAMBO,TAMBO,DE LA MAR,AYACUCHO,1,-12.9481515,-74.0201903
JR. MANUEL PRADO 243,SATIPO,SATIPO,JUNIN,1,-11.2558599,-74.635278
"JR. MACHUPICCHU Nº 193, URB. SANTA ANA",SANTA ANA,LA CONVENCION,CUSCO,1,-12.860782,-72.7440796
JR. LOS ANDES NRO. 167 (ANTES PROGRAMA DE VIVIENDA P.V.H.U. ZONA CENTRO MZ. B LT. 39),HUARMEY,HUARMEY,ANCASH,1,-10.0687481,-78.152199
JR. LIMA N°387-397 ESQUINA CON JR. DANIEL ALCIDES CARRION N°317-319,TARAPOTO,SAN MARTIN,SAN MARTIN,1,-6.4877198,-76.3598708
JR. LIMA N° 148 - BARRIO EL COMERCIO - TARAPOTO,TARAPOTO,TARAPOTO,TARAPOTO,1,-6.4946884,-76.3594886
AV. BOLOGNESI N° 301,YANAHUARA,AREQUIPA,AREQUIPA,1,-12.1134469,-76.827174
AV. BOLOGNESI 612,LA PUNTA,CALLAO,LIMA,1,-18.0128149,-70.2480473
AV. BOLOGNESI # 607 - ESQUINA CON JR ELIAS AGUIRRE - REF EX ELIAS AGUIRRE CHIMBOTE,CHIMBOTE,CHIMBOTE,CHIMBOTE,1,-3.9302086,-70.7797051
AV. BOLIVAR 800,PUEBLO LIBRE,LIMA,LIMA,1,-12.0720795,-77.0610369
AV. BOLIVAR 181,CASMA,CASMA,ANCASH,1,-13.5314793,-71.9364475
AV. BENAVIDES 1930-1936-1944-1948 OFICINA 702,MIRAFLORES,LIMA,LIMA,1,-12.1206214,-77.0294993
AV. BELAUNDE 147,SAN ISIDRO,LIMA,LIMA,1,-12.0962186,-77.0368662
"JR. SANTA ROSA MZ. A, LT. 11.",YUNGAY,YUNGAY,ANCASH,1,-9.1397639,-77.7446153
JR. SAN MARTIN N° 700,HUAMACHUCO,SANCHEZ CARRION,LA LIBERTAD,1,-7.8154676,-78.0487063
JR. SAN MARTIN MZ. 48 LT. 5 - SECHURA,SECHURA,SECHURA,PIURA,1,-5.5575353,-80.8223327
JR. SAN MARTIN 425 BARRIO BELEN,MOYOBAMBA,MOYOBAMBA,SAN MARTIN,1,-6.0347302,-76.9746773
JR. SAN JUAN N° 123 -B. JULI. CHUCUITO. PUNO,JULI,CHUCUITO,PUNO,1,-16.2132873,-69.4591568
JR. RICARDO PALMA N° 1010,VILLA MARIA DEL TRIUNFO,LIMA,LIMA,1,-15.8471675,-70.0228677
JR. RAUL PORRAS BARNECHEA N° 1052 ZONA 3,JULIACA,SAN ROMAN,PUNO,1,-15.4932314,-70.1356177
JR. PROSPERO N° 832 – 836,IQUITOS,MAYNAS,LORETO,1,-3.749365,-73.2444145
JR. PROSPERO N° 247 - IQUITOS,IQUITOS,IQUITOS,IQUITOS,1,-3.7508848,-73.2567107
"AV. AVIACION N° 3756, CRUCE CON URB. LA CALERA.",SURQUILLO,LIMA,LIMA,1,-12.1142159,-77.010462
AV. ARMENDARIZ 480 PISO 3,MIRAFLORES,LIMA,LIMA,1,-12.1206214,-77.0294993
AV. ARICA 580,BRENA,LIMA,LIMA,1,-12.0895718,-77.0827128
"AV. ARGENTINA 4793, CARMEN DE LA LEGUA - REYNOSO 07006",CARMEN DE LA LEGUA REYNOSO,CALLAO,CALLAO,1,-12.0471763,-77.0929853
JR. PRIMERO DE MAYO CON JR. MICAELA BASTIDAS N° 501 - 505,PICHANAKI,CHANCHAMAYO,JUNIN,1,-11.002808,-74.815139
JR. PLAZA MAYOR N° 245 .,TARAPOTO,SAN MARTIN,SAN MARTIN,1,-6.4877198,-76.3598708
JR. PLAZA DE ARMAS N° 154,RECUAY,RECUAY,ANCASH,1,-9.722026,-77.4561556
JR.GRAU N° 544. YUNGUYO. YUNGUYO. PUNO,YUNGUYO,YUNGUYO,PUNO,1,-16.2442325,-69.0925538
JR. ZEPITA 423 (FRENTE BCP),ILO,ILO,MOQUEGUA,1,-17.6458772,-71.3452005
JR. VIRREY TOLEDO 383,HUANCAVELICA,HUANCAVELICA,HUANCAVELICA,1,-12.78728,-74.9730951
JR. TRIUNFO N° 101 (CINCO ESQUINAS). HUANCANE-PUNO,HUANCANE,HUANCANE,PUNO,1,-15.2040929,-69.7613717
JR. TINGO MARIA N°238-258 LT 6 MZ 16D SECTOR VIDA NUEVA,JOSE CRESPO Y CASTILLO,LEONCIO PRADO,HUANUCO,1,-8.8511045,-76.0736301
JR. TARMA NO. 244,CHANCHAMAYO,CHANCHAMAYO,JUNIN,1,-11.059485,-75.4993163
"JR. TARAPACA 825 MZ 34, LT 8-A – PUCALLPA",PUCALLPA,PUCALLPA,PUCALLPA,1,-8.3750879,-74.5453301
JR. SINCHI ROCA S/N - TRUJILLO - LA LIBERTAD,LA LIBERTAD,TRUJILLO,LA LIBERTAD,1,-8.0905833,-78.961634
AV. ARGENTINA 2833 - CALLAO,CALLAO,CALLAO,CALLAO,1,-12.0515968,-77.13538
"AV. AREQUIPA 1098,",CENTRO DE LIMA,LIMA,LIMA,1,-13.2895997,-76.2523769
AV. ARENALES 2259,LINCE,LIMA,LIMA,1,-12.2138325,-76.8793553
AV. ANTUNEZ DE MAYOLO 1388 - URB. LOS PINARES,LOS OLIVOS,LIMA,LIMA,1,-11.9916722,-77.0709115
AV. ANTONIO JOSE SUCRE 620,PUEBLO LIBRE,LIMA,LIMA,1,-16.3848655,-71.5262845
AV. ANGAMOS OESTE 785,MIRAFLORES,LIMA,LIMA,1,-12.110515,-77.0461647
AV. ANDRES AVELINO CACERES N°101,AYABACA,AYABACA,PIURA,1,-12.5259979,-73.8287652
JR. SEPULVEDA N° 215,SAN VICENTE DE CANETE,CANETE,LIMA PROVINCIAS,1,-13.077767,-76.3874465
"AV. ALAMEDA SUR ESQUINA AV. SAN MARCOS, PARCELA II",CHORRILLOS,LIMA,LIMA,1,-12.1709478,-77.02126
AV. 28 DE JULIO 258 - HUACHO,HUACHO,HUACHO,HUACHO,1,-11.1072901,-77.6055913
"AV. 24 DE OCTUBRE MZ. D4, LT 19. AAHH TUPAC AMARU DE VILLA",CHORRILLOS,LIMA,LIMA,1,-12.1709478,-77.02126
AV. 15 DE JULIO LOTE 29 ZONA B,ATE,LIMA,LIMA,1,-12.0387281,-76.896873
"AV, ALAMEDA PERU N°555",RUPA-RUPA,LEONCIO PRADO,HUANUCO,1,-9.1990928,-76.1312275
"AV VICTOR MALASQUEZ MZ C LT 7 , CENTRO POBLADO LOS HUERTOS DE MANCHAY, SECTOR CENTRAL",PACHACAMAC,LIMA,LIMA,1,-12.2299109,-76.8593914
"AV. ANDRES ARAMBURU 1105, SAN ISIDRO 15036",SAN ISIDRO,LIMA,LIMA,1,-12.1020616,-77.0175776
AV. AMERICA NORTE Nº 1323 URB. LAS QUINTANAS,TRUJILLO,TRUJILLO,TRUJILLO,1,-8.1116778,-79.0287742
AV. AMERICA NORTE N° 1351,TRUJILLO,TRUJILLO,LA LIBERTAD,1,-8.0944299,-79.0267105
AV. AMERICA NORTE N° 1275 - URB. LAS QUINTANAS - TRUJILLO - LA LIBERTAD,TRUJILLO,TRUJILLO,LA LIBERTAD,1,-8.1116778,-79.0287742
AV. AMERICA DEL NORTE 1245 URB LOS JARDINES,TRUJILLO,TRUJILLO,LA LIBERTAD,1,-8.1116778,-79.0287742
AV. ALFREDO MENDIOLA N° 7887 LOS OLIVOS,LOS OLIVOS,LIMA,LIMA,1,-11.9998819,-77.062713
AV. ALFREDO MENDIOLA N° 3529 - LOS OLIVOS - LIMA - LIMA,LOS OLIVOS,LIMA,LIMA,1,-11.9998819,-77.062713
AV. ALFREDO MENDIOLA NRO. 3698 INT. L91 (C.C. MEGA PLAZA) LIMA - LIMA - INDEPENDENCIA,INDEPENDENCIA,LIMA,LIMA,1,-11.9919461,-77.0503721
"JUNIN 629, ILO 18601",ILO,ILO,MOQUEGUA,1,-17.6468834,-71.3448792
JR.SUCRE N° 1124,CARAZ,HUAYLAS,ANCASH,1,-9.048505,-77.8100573
MZ C LT 7 URB. SANTO DOMINGO PUENTE PIEDRA,PUENTE PIEDRA,LIMA,LIMA,1,-11.8667978,-77.0778382
MZ C LT 5 - URB. SANTO DOMINGO,PUENTE PIEDRA,LIMA,LIMA,1,-11.8665995,-77.0744776
"MZ 31 LT 4, CENTRO POBLADO PACCHA",PACCHA,CHOTA,CAJAMARCA,1,-6.4973639,-78.4234478
"MZ 01 LOTE 38, URB. SAN JUAN MASIAS.",CALLAO,CALLAO,LIMA,1,-11.9496688,-77.1288139
"MICAELA BASTIDAS MZ.15-LT.8, PPJJ EL PORVENIR SECTOR CENTRAL",EL PORVENIR,TRUJILLO,LA LIBERTAD,1,-8.0516808,-79.0016911
LUIS GALVINI 371,ATE,LIMA,LIMA,1,-12.0387281,-76.896873
"AV TEODORO VALCARCEL 1098, TRUJILLO 13001",TRUJILLO,TRUJILLO,TRUJILLO,1,-8.1013191,-79.0358408
"AV SANCHEZ CERRO 234 - 239,",PIURA,PIURA,PIURA,1,-9.3762211,-74.9656837
AV SAMUEL DE ALCAZAR N° 378 RIMAC LIMA,RIMAC,LIMA,LIMA,1,-12.0266773,-77.0340939
AV REPUBLICA PANAMA 5165,SURQUILLO,LIMA,LIMA,1,-12.1173358,-77.0180444
AV NICOLAS DE PIEROLA 1658-- JIRON PARURO 1422 CERCADO DE LIMA,LIMA,LIMA,LIMA,1,-12.0459808,-77.0305912
AV NICOLAS AYLLON MZ C LT 16 URB. EL PORVENIR - ATE,ATE,LIMA,LIMA,1,-12.0387281,-76.896873
"LT. 33 MZ. B URBANIZACION MONTERRICO (AV. LA MOLINA CDRA. 7 ESQUINA CON LOS DAMASCOS, LA MOLINA)",LA MOLINA,LIMA,LIMA,1,-12.077983,-76.9172838
LOTE 1 MZ L-1 PARCELACION ZAPALLAL,PUENTE PIEDRA,LIMA,LIMA,1,-11.8667978,-77.0778382
KM 91.5 PANAMERICANA SUR PARTE UC N° 12166 - MALA,ASIA,LIMA,LIMA,1,-12.8033662,-76.4899568
AV. ALFREDO BENAVIDES NRO. 671 URB. LEURO (ESQ.BENAVIDES/GRIMALDO NRO.290) LIMA - LIMA – MIRAFLORES,MIRAFLORES,LIMA,LIMA,1,-12.1206214,-77.0294993
AV EL DERBY 254 - PISO 22,SURCO,LIMA,LIMA,1,-11.8678175,-76.4576592
AV EL DERBY 250- PISO 2,SURCO,LIMA,LIMA,1,-11.8678175,-76.4576592
"PASAJE 122 MZ. N, LOTE 4-A, URB. SAN JUAN, SECCION CENTRO COMERCIAL",YANACANCHA,PASCO,PASCO,1,-10.6702605,-76.2544781
"PAOL HARRIS 1075 , LA VICTORIA",LA VICTORIA,LIMA,LIMA,1,-12.0641355,-77.0295563
PANAMERICANA Nº 817 SECTOR 01 MZ. 6 LT. 12,ILLIMO,LAMBAYEQUE,LAMBAYEQUE,1,-6.4740731,-79.8551381
"PAITA SULLANA KILOMETRO 3, LOTE B",PAITA,PAITA,PAITA,1,-5.0851637,-81.1136793
MZ.C LT13 URB.ZONA COMERCIAL E INDUSTRIAL DE VENTANILLA,VENTANILLA,CALLAO,LIMA,1,-11.8373115,-77.1262405
"MZ.A-LT.10, SECTOR 6, GRUPO RESIDENCIAL 8 A",VILLA EL SALVADOR,LIMA,LIMA,1,-12.2135031,-76.9370262
MZ. Z1 LT. 21 AAHH ENRIQUE MONTENEGRO - SJL - LIMA,SAN JUAN DE LURIGANCHO,LIMA,LIMA,1,-12.0017252,-77.0084106
"MZ. I LOTE 16, URB. LA COLINA I",JACOBO HUNTER,AREQUIPA,AREQUIPA,1,-16.4591236,-71.5689479
MZ. H-2 LOTE 11 - 12 AV. CARAPONGO S/N - URB. SAN ANTONIO DE CARAPONGO,LURIGANCHO,LIMA,LIMA,1,-11.948832,-76.7627012
MZ. D LOTE 07 4TA ETAPA URB. PALERMO - TRUJILLO - LA LIBERTAD,PALERMO,TRUJILLO,LA LIBERTAD,1,-8.1208943,-79.033471
MZ. C LT. 07 URB. PACHACAMAC 1ERA. ETAPA.,VILLA EL SALVADOR,LIMA,LIMA,1,-12.2135031,-76.9370262
MZ V1 LOTE 16,POMACANCHI,ACOMAYO,CUSCO,1,-13.1260237,-74.2254391
MZ P5 LT 03 AV EL PROGRESO C.P. SAN JACINTO,NEPENA,SANTA,ANCASH,1,-9.1726623,-78.3614116
MZ N LT 1 ZN PROYECTO ESPECIAL CIUDAD PACHACUTEC DEL AA.HH SOL Y MAR SECTOR 1,VENTANILLA,CALLAO,LIMA,1,-11.8373115,-77.1262405
"PROLONGACION AV. 225, MZ. S LOTE 04, SECTOR C-GR-C4",VENTANILLA,CALLAO,LIMA,1,-11.8373115,-77.1262405
PROLONG MARIANO IGNACIO PRADO 161 PLAZA DE ARMAS,CHILCA,CANETE,LIMA PROVINCIAS,1,-12.5185727,-76.7381488
PROLOG GONZALES PRADA KM 562 EX FUNDO LARREA MOCHE - TRUJILLO,MOCHE,TRUJILLO,LA LIBERTAD,1,-8.1714148,-79.008936
PPJJ ENRIQUE MONTENEGRO MZ U LT 06,SAN JUAN DE LURIGANCHO,LIMA,LIMA,1,-12.0017252,-77.0084106
PLAZA S/N,ILABAYA,JORGE BASADRE,TACNA,1,-15.5994678,-71.8058163
PLAZA DE ARMAS N°104-CENTRO POBLADO COMBAPATA,COMBAPATA,CANCHIS,CUSCO,1,-14.1015949,-71.4296335
PLAZA DE ARMAS 307. YAURI. ESPINAR. CUSCO,ESPINAR,ESPINAR,CUSCO,1,-14.9140687,-71.342938
"PJE. VALDIVIA, HUANCHACO 13000",TRUJILLO,TRUJILLO,TRUJILLO,1,-8.1116778,-79.0287742
"PE-1S KM 38, PUNTA HERMOSA 15845",PUNTA HERMOSA,LIMA,LIMA,1,-12.3498762,-76.8067833
"AV JUAN DE ARONA 786, SAN ISIDRO 15046",SAN ISIDRO,LIMA,LIMA,1,-12.0961372,-77.0270916
"AV JUAN DE ALIAGA 435, MAGDALENA",MAGDALENA DEL MAR,LIMA,LIMA,1,-12.099074,-77.0600215
"AV JOSE OLAYA 225, CHORRILLOS",CHORRILLOS,LIMA,LIMA,1,-12.164074,-77.0225087
AV JOSE GABRIEL CONDORCANQUI 1264,LA ESPERANZA,TRUJILLO,LA LIBERTAD,1,-11.9739342,-77.0475416
AV JOSE BALTA 1731,CHICLAYO,CHICLAYO,LAMBAYEQUE,1,-11.8176268,-77.1249474
"AV GUARDIA CIVIL 1100, SAN ISIDRO",SAN ISIDRO,LIMA,LIMA,1,-12.0905376,-77.0081454
AV EL DERBY 254 - PISO 25,SURCO,LIMA,LIMA,1,-11.8678175,-76.4576592
"SUB LOTE 2, MZ. C LOTE 5 HABILITACION PRE URBANA, BARBADILLO",ATE,LIMA,LIMA,1,-12.0387281,-76.896873
"2VPC+M29, CALLAO 07046",CALLAO,CALLAO,CALLAO,1,-11.9496688,-77.1288139
"5W7W+6M3, CARABAYLLO 15122",PUENTE PIEDRA,LIMA,LIMA,1,-11.8667978,-77.0778382
"WW72+C67, PAITA 20701",PAITA,PAITA,PIURA,1,-5.0851637,-81.1136793
VIA DE EVITAMIENTO S/N LATERAL 1 SAN ISIDRO - CERRO COLORADO,CERRO COLORADO,AREQUIPA,AREQUIPA,1,-16.2979991,-71.573948
"VARIANTE DE UCHUMAYO, CERRO COLORADO 04014, PERU",CERRO COLORADO,AREQUIPA,AREQUIPA,1,-16.2979991,-71.573948
VARIANTE DE UCHUMAYO KM 4 SACHACA,SACHACA,AREQUIPA,AREQUIPA,1,-16.425605,-71.5757898
"V7W9+WJP, ICA 11000",ICA,LIMA,LIMA,1,-12.0787964,-76.9869814
URBANIZACION VIRGEN DE COCHARCAS MZ B LOTE 20,VILLA EL SALVADOR,LIMA,LIMA,1,-12.2135031,-76.9370262
URBANIZACION ANDRES ARAUJO MZ 20 LOTE 11 - AV. FERNANDO BELAUNDE TERRY.,TUMBES,TUMBES,TUMBES,1,-3.5707875,-80.4596454
REPUBLICA 2557,LA VICTORIA,LIMA,LIMA,1,-11.3185279,-69.4614619
REAL PLAZA PURUCHUCO,ATE,LIMA,LIMA,1,-12.040852,-76.932244
"RAMON CASTILLA N° 1064, PUEBLO JOVEN LA TOMATILLA",CAYMA,AREQUIPA,AREQUIPA,1,-16.2793942,-71.4603116
"Q47M+HM PACHACAMAC, PERU",PACHACAMAC,LIMA,LIMA,1,-12.2299109,-76.8593914
PZA. DE ARMAS 224,PAITA,PAITA,PIURA,1,-16.3988333,-71.5369705
PUEBLO TRADICIONAL SOROCHUCO,SOROCHUCO,CELENDIN,CAJAMARCA,1,-6.9116568,-78.2550906
"AV. SANCHEZ CERRO, SUB-LOTE N° 234-239 “A”, ZONA INDUSTRIAL, LC-156/157",PIURA,PIURA,PIURA,1,-5.1971376,-80.6267237
AV. SANCHEZ CERRO Nº 1279 (COSTADO BCP).,PIURA,PIURA,PIURA,1,-5.1971376,-80.6267237
AV. SAN MARTIN N° 821 - 823 SULLANA,SULLANA,SULLANA,PIURA,1,-4.8900643,-80.6873604
AV. SAN MARTIN N° 1300 - URB. SAN ISIDRO - REF: ESQUINA CON CALLE ORQUIDEAS - ICA,ICA,ICA,ICA,1,-14.0640967,-75.7290915
AV. SAN MARTIN DE SOCABAYA N° 307 - SOCABAYA - AREQUIPA,SOCABAYA,AREQUIPA,AREQUIPA,1,-16.4689321,-71.5380727
AV. SAN MARTIN 892 - REF ALT PLAZA ZELA - TACNA,TACNA,TACNA,TACNA,1,-18.01386,-70.2511032
"AV. SAN MARTIN 166 MZ X1, LT 12",PUNTA DE BOMBON,ISLAY,AREQUIPA,1,-17.1721359,-71.7905267
AV. SAENZ PENA N° 922 N° 924,CALLAO,CALLAO,LIMA,1,-11.9496688,-77.1288139
"7QQP+783, PISCO 11601",PISCO,PISCO,PISCO,1,-13.7099813,-76.2029793
URB. SANTO DOMINGO MZ. C LTE. 8,PUENTE PIEDRA,LIMA,LIMA,1,-11.8667978,-77.0778382
URB. PRO VIVIENDA VIRGEN DEL CARMEN MZ E LT 6,ATE,LIMA,LIMA,1,-12.0387281,-76.896873
URB. LAS CASUARINAS MZ A1 LOTE 10 PARCELA 4 SECTOR 72,NUEVO CHIMBOTE,SANTA,ANCASH,1,-9.1183822,-78.4587932
"UNNAMED ROAD, SAN BARTOLO 15855",SAN BARTOLO,LIMA,LIMA,1,-12.3676926,-76.7188027
TRANSVERSAL LIMA N° 490 SULLANA,SULLANA,SULLANA,SULLANA,1,-4.8928911,-80.687756
"TERMINAL PORTUARIO MATARANI S/N MATARANI, AREQUIPA, PERU",AREQUIPA,AREQUIPA,AREQUIPA,1,-16.3988667,-71.5369607
"SUB- LOTE 06, KM. 9 CARRETERA A YURA. (FRENTE A PLAZA NORTE)",CERRO COLORADO,AREQUIPA,AREQUIPA,1,-16.2979991,-71.573948
